"","Category","Operating.Name","city","Zip","Street","Address","lat","long","lamda","mu","sigma","qCustomer","tCustomer"
"1","TAXICAB OPERATOR","NORTHLAND TAXI","TORONTO, ON","M4H 1H2","THORNCLIFFE PARK DR","2 THORNCLIFFE PARK DR,TORONTO, ON,M4H 1H2",43.7059324,-79.352044,10,0.33,0.5,10,1.64063883888902
"2","PRIVATE PARKING ENFORCEMENT AGENCY","HALO SECURITY INC","TORONTO, ON","M4L 1G1","QUEEN ST E","1574 QUEEN ST E,TORONTO, ON,M4L 1G1",43.6660728,-79.3183645,5,0.33,0.5,6,0.836452033201402
"3","PRIVATE PARKING ENFORCEMENT AGENCY","MERIDIAN SECURITY SOLUTIONS INC","TORONTO, ON","M4N 3N1","YONGE ST","3080 YONGE ST,TORONTO, ON,M4N 3N1",43.7256028,-79.4025228,5,0.33,0.5,2,8.78430738370031
"4","DRIVING SCHOOL OPERATOR (B)","ALBERT DRIVING SCHOOL","TORONTO, ON","M4C 1L7","DANFORTH AVE","2704 DANFORTH AVE,TORONTO, ON,M4C 1L7",43.689058728,-79.298387924,5,1,0.5,2,0.660532345995307
"5","DRIVING SCHOOL OPERATOR (B)","LEASIDE DRIVING ACADEMY","TORONTO, ON","M4G 3C1","BAYVIEW AVE","1659 BAYVIEW AVE,TORONTO, ON,M4G 3C1",43.7073432538462,-79.3756176615385,5,1,0.5,4,0.213613606523722
"6","DRIVING SCHOOL OPERATOR (B)","NEW METHOD DRIVING SCHOOL","TORONTO, ON","M4M 1Y5","GERRARD ST E","737 GERRARD ST E,TORONTO, ON,M4M 1Y5",43.6664437789474,-79.3474274947368,5,1,0.5,7,0.726810539099288
"7","DRIVING SCHOOL OPERATOR (B)","TORONTO DRIVERS ACADEMY","TORONTO, ON","M4J 5B5","DANFORTH AVE","1245 DANFORTH AVE,TORONTO, ON,M4J 5B5",43.68171096,-79.33068548,5,1,0.5,7,0.833160196388972
"8","DRIVING SCHOOL OPERATOR (B)","HUR DRIVING ACADEMY","TORONTO, ON","M4C 4X3","MAIN ST","265 MAIN ST,TORONTO, ON,M4C 4X3",43.687622,-79.299878,5,1,0.5,3,0.255476355224839
"9","DRIVING SCHOOL OPERATOR (B)","YOUNG STAR DRIVING SCHOOL","TORONTO, ON","M4C 1J9","DANFORTH AVE","2084 DANFORTH AVE,TORONTO, ON,M4C 1J9",43.6858878,-79.3124798428571,5,1,0.5,6,0.16366698388727
"10","DRIVING SCHOOL OPERATOR (B)","BASIC DRIVING SCHOOL","TORONTO, ON","M4A 2M2","VICTORIA PARK AVE","1468 VICTORIA PARK AVE,TORONTO, ON,M4A 2M2",43.7224852,-79.3022676,5,1,0.5,6,1.23711673724921
"11","DRIVING SCHOOL OPERATOR (B)","A M B DRIVING SCHOOL","TORONTO, ON","M4K 1N8","DANFORTH AVE","358 DANFORTH AVE,TORONTO, ON,M4K 1N8",43.6775243,-79.352765,5,1,0.5,4,2.34802927928381
"12","DRIVING SCHOOL OPERATOR (B)","TRILLIUM DRIVING SCHOOL","TORONTO, ON","M4C 1M6","DANFORTH AVE","2986 DANFORTH AVE,TORONTO, ON,M4C 1M6",43.69057511875,-79.29175990625,5,1,0.5,4,1.61361647947671
"13","DRIVE-SELF RENTAL OWNER","AVIS RENT A CAR CANADA","TORONTO, ON","M4S 3B2","YONGE ST","1910 YONGE ST,TORONTO, ON,M4S 3B2",43.698307,-79.3971878,10,0.33,0.5,9,2.85696234879985
"14","DRIVE-SELF RENTAL OWNER","HERTZ CANADA","TORONTO, ON","M4W 3G7","BLOOR ST E","20 BLOOR ST E,TORONTO, ON,M4W 3G7",43.6709328,-79.3845937,10,0.33,0.5,5,0.457775087836052
"15","DRIVE-SELF RENTAL OWNER",NA,"TORONTO, ON","M4C 1M9","DANFORTH AVE","3003 DANFORTH AVE,TORONTO, ON,M4C 1M9",43.689662,-79.2890060790984,10,0.33,0.5,5,0.933296886752501
"16","DRIVE-SELF RENTAL OWNER","ENTERPRISE RENT-A-CAR","TORONTO, ON","M4W 1A8","BLOOR ST E","2 BLOOR ST E,TORONTO, ON,M4W 1A8",43.6707855,-79.3856867,10,0.33,0.5,11,3.132058468266
"17","DRIVE-SELF RENTAL OWNER","ENTERPRISE RENT-A-CAR","TORONTO, ON","M4G 3T7","LAIRD DR","121 LAIRD DR,TORONTO, ON,M4G 3T7",43.7068725,-79.3613942,10,0.33,0.5,9,13.3269827127947
"18","HOLISTIC CENTRE","ELITA BEAUTY HEALTH DESIGN","TORONTO, ON","M4S 2M5","MOUNT PLEASANT RD","617 MOUNT PLEASANT RD,TORONTO, ON,M4S 2M5",43.70413768,-79.38836436,5,1.5,0.5,2,2.33414750472204
"19","HOLISTIC CENTRE","FENG RONG SPA","TORONTO, ON","M4M 2H1","BROADVIEW AVE","347 BROADVIEW AVE,TORONTO, ON,M4M 2H1",43.6649756833333,-79.3522254666667,5,1.5,0.5,5,0.86557263691903
"20","HOLISTIC CENTRE","FOUR-LEAVED CLOVER HEALING SPA","TORONTO, ON","M4P 2H6","YONGE ST","2469 YONGE ST,TORONTO, ON,M4P 2H6",43.7115635666667,-79.3992077444444,5,1.5,0.5,4,0.888112999470838
"21","HOLISTIC CENTRE","BLISS WELLNESS STUDIO TO","TORONTO, ON","M4S 1Z4","YONGE ST","1958 YONGE ST,TORONTO, ON,M4S 1Z4",43.6993758,-79.3970631,5,1.5,0.5,4,0.916355637184588
"22","HOLISTIC CENTRE","THE BLUE SPA","TORONTO, ON","M4Y 1Z2","YONGE ST","569 YONGE ST,TORONTO, ON,M4Y 1Z2",43.665306,-79.3846033333333,5,1.5,0.5,4,0.511996657870023
"23","HOLISTIC CENTRE","RELAX THERAPY CLINIC","TORONTO, ON","M4S 2A2","YONGE ST","2029 YONGE ST,TORONTO, ON,M4S 2A2",43.7015158,-79.3970493,5,1.5,0.5,1,0.235146347793647
"24","HOLISTIC CENTRE","LH HEALTH STUDIO INC","TORONTO, ON","M4G 3C1","BAYVIEW AVE","1699A BAYVIEW AVE,TORONTO, ON,M4G 3C1",43.7078177,-79.3759566,5,1.5,0.5,1,0.228654582674305
"25","HOLISTIC CENTRE","KING THAI MASSAGE HEALTH CARE CENTRE","TORONTO, ON","M4V 1K6","ST CLAIR AVE W","15 ST CLAIR AVE W,TORONTO, ON,M4V 1K6",43.6877829,-79.3947328,5,1.5,0.5,6,0.483931104314137
"26","HOLISTIC CENTRE","FOOT LINE MILES SPA","TORONTO, ON","M4M 1Y2","GERRARD ST E","667 GERRARD ST E,TORONTO, ON,M4M 1Y2",43.6659434261722,-79.3497383150788,5,1.5,0.5,11,0.459902986573676
"27","HOLISTIC CENTRE","HEALTHY FOOT SPA","TORONTO, ON","M4N 2N3","YONGE ST","3477 YONGE ST,TORONTO, ON,M4N 2N3",43.7342361,-79.4043486,5,1.5,0.5,5,0.0788223644097646
"28","HOLISTIC CENTRE","TUI-NA HEALTH CLINIC","TORONTO, ON","M4T 1W5","YONGE ST","1278 YONGE ST,TORONTO, ON,M4T 1W5",43.6836474,-79.392458,5,1.5,0.5,4,1.42499135053697
"29","HOLISTIC CENTRE","TOKYO SHIATSU AND ACUPUNCTURE CLINIC","TORONTO, ON","M4P 2E7","YONGE ST","2409 YONGE ST,TORONTO, ON,M4P 2E7",43.7105134,-79.3986923,5,1.5,0.5,7,0.0406346078962088
"30","HOLISTIC CENTRE","MANY CHANCES HEALTH SPA","TORONTO, ON","M4C 1K9","DANFORTH AVE","2428 DANFORTH AVE,TORONTO, ON,M4C 1K9",43.6877180837209,-79.304690872093,5,1.5,0.5,6,0.208539638357858
"31","HOLISTIC CENTRE","WONDER SPA","TORONTO, ON","M4M 2G9","BROADVIEW AVE","322 BROADVIEW AVE,TORONTO, ON,M4M 2G9",43.6644827,-79.3523897,5,1.5,0.5,6,0.171285744446019
"32","HOLISTIC CENTRE","ACTION HEALTH CENTRE","TORONTO, ON","M4T 1Y4","YONGE ST","1395 YONGE ST,TORONTO, ON,M4T 1Y4",43.687003,-79.3934587,5,1.5,0.5,6,0.664180288684177
"33","HOLISTIC CENTRE","SUN WELLNESS","TORONTO, ON","M4C 1M9","DANFORTH AVE","3003 DANFORTH AVE,TORONTO, ON,M4C 1M9",43.689662,-79.2890060790984,5,1.5,0.5,5,0.696169496175456
"34","HOLISTIC CENTRE","HAPPY SHIASU NEW FOOT SPA.","TORONTO, ON","M4P 2J1","YONGE ST","2587 YONGE ST,TORONTO, ON,M4P 2J1",43.7143651,-79.3997705,5,1.5,0.5,6,1.20696360984804
"35","HOLISTIC CENTRE","SHINING STARS HEALTH CENTRE","TORONTO, ON","M4W 2H2","YONGE ST","895 YONGE ST,TORONTO, ON,M4W 2H2",43.6746935,-79.3883431,5,1.5,0.5,2,1.47158737844768
"36","HOLISTIC CENTRE","NU SPARKLE WELLNESS","TORONTO, ON","M4J 1L2","DANFORTH AVE","725 DANFORTH AVE,TORONTO, ON,M4J 1L2",43.6791585,-79.343083,5,1.5,0.5,4,0.0485236207023263
"37","HOLISTIC CENTRE","MOON HEALTH CENTRE","TORONTO, ON","M4S 1Z8","YONGE ST","2005A YONGE ST,TORONTO, ON,M4S 1Z8",43.7008694,-79.3971285,5,1.5,0.5,6,0.19033607696424
"38","HOLISTIC CENTRE","RELAXALL M HEALTH CENTRE","TORONTO, ON","M4J 1L2","DANFORTH AVE","809 DANFORTH AVE,TORONTO, ON,M4J 1L2",43.6796089411765,-79.3407892529412,5,1.5,0.5,9,0.995313362472868
"39","HOLISTIC CENTRE","WORKPOINT MASSAGE & WELLNESS","TORONTO, ON","M4P 2H6","YONGE ST","2499 YONGE ST,TORONTO, ON,M4P 2H6",43.7120522875,-79.399302775,5,1.5,0.5,6,0.136269151791585
"40","HOLISTIC CENTRE","APPLE SPA & WELLNESS","TORONTO, ON","M4S 3H3","HOLLY ST","90 HOLLY ST,TORONTO, ON,M4S 3H3",43.706585,-79.39682,5,1.5,0.5,4,0.326855426033338
"41","ADULT ENTERTAINMENT CLUB","BRASS RAIL TAVERN (TORONTO)","TORONTO, ON","M4Y 2B2","YONGE ST","699-701 YONGE ST,TORONTO, ON,M4Y 2B2",43.6688264,-79.3861681,5,1,0.5,7,1.4045351393128
"42","ADULT ENTERTAINMENT CLUB","UPPER BRASS","TORONTO, ON","M4Y 2B2","YONGE ST","699 YONGE ST,TORONTO, ON,M4Y 2B2",43.669192,-79.386209,5,1,0.5,7,0.427800571545959
"43","PLACE OF AMUSEMENT","KIDS FUN TOWN","TORONTO, ON","M4C 1J8","DANFORTH AVE","2073 DANFORTH AVE,TORONTO, ON,M4C 1J8",43.685486273913,-79.3130307434783,30,1,0.5,34,2.29220090980146
"44","PLACE OF AMUSEMENT","JUMP FOR JOY PLAYCENTRE","TORONTO, ON","M4J 1N4","DANFORTH AVE","1472 DANFORTH AVE,TORONTO, ON,M4J 1N4",43.6829683928571,-79.3260043214286,30,1,0.5,22,0.981884584720147
"45","PLACE OF AMUSEMENT","SKY ZONE INDOOR TRAMPOLINE PARK","TORONTO, ON","M4G 4C5","ESANDAR DR","45 ESANDAR DR,TORONTO, ON,M4G 4C5",43.7067846,-79.3572156,30,1,0.5,31,0.317299616169498
"46","PLACE OF AMUSEMENT","GAMER GOLF","TORONTO, ON","M4B 2T8","O'CONNOR DR","1400 O'CONNOR DR,TORONTO, ON,M4B 2T8",43.712842,-79.3075535,30,1,0.5,22,0.365670768078417
"47","PLACE OF AMUSEMENT","GOLF 247 LEASIDE","TORONTO, ON","M4G 3V2","LAIRD DR","94 LAIRD DR,TORONTO, ON,M4G 3V2",43.7059159,-79.3622243,30,1,0.5,33,0.277252735570073
"48","BILLIARD HALL","GROOVE SPORTS BAR","TORONTO, ON","M4C 1J4","DANFORTH AVE","1952 DANFORTH AVE,TORONTO, ON,M4C 1J4",43.6852257466667,-79.3155316666667,20,1,0.5,21,0.120332512376272
"49","BILLIARD HALL","THE DUKE LIVE","TORONTO, ON","M4M 1L6","QUEEN ST E","1225 QUEEN ST E,TORONTO, ON,M4M 1L6",43.663103,-79.3303001,20,1,0.5,16,0.246122396424579
"50","BILLIARD HALL","SEB'S CAPUCCINO","TORONTO, ON","M4C 1J4","DANFORTH AVE","1928 DANFORTH AVE,TORONTO, ON,M4C 1J4",43.6850979066667,-79.3161144666667,20,1,0.5,16,1.33056935384394
"51","BILLIARD HALL","VIP BILLIARDS ON DANFORTH","TORONTO, ON","M4K 1P5","DANFORTH AVE","485 DANFORTH AVE,TORONTO, ON,M4K 1P5",43.6779285526316,-79.3493079210526,20,1,0.5,23,0.33731255447492
"52","BOWLING HOUSE","DANFORTH BOWL","TORONTO, ON","M4J 1N4","DANFORTH AVE","1554 DANFORTH AVE,TORONTO, ON,M4J 1N4",43.6834157,-79.3241994,20,1,0.5,15,2.38045840511534
"53","SMOKE SHOP","BRIGHAM & MORE TOBACCONIST AND EPICURES","TORONTO, ON","M4L 1H6","QUEEN ST E","1946 QUEEN ST E,TORONTO, ON,M4L 1H6",43.6695629714286,-79.3028692,10,0.5,0.5,8,2.07816560930553
"54","SMOKE SHOP","HAVANA CASTLE CIGARS BAYVIEW","TORONTO, ON","M4G 3B5","BAYVIEW AVE","1563 BAYVIEW AVE,TORONTO, ON,M4G 3B5",43.7054981607002,-79.374894628121,10,0.5,0.5,12,3.57861320657616
"55","SMOKE SHOP","THE SMOKIN' CIGAR","TORONTO, ON","M4G 3B6","BAYVIEW AVE","1540 BAYVIEW AVE,TORONTO, ON,M4G 3B6",43.7046527,-79.375002,10,0.5,0.5,15,3.58416263742333
"56","RETAIL STORE (FOOD)","PRINCE OF WALES FRUIT MARKET","TORONTO, ON","M4C 1H8","DANFORTH AVE","1846 DANFORTH AVE,TORONTO, ON,M4C 1H8",43.6847577,-79.3178967,30,1,0.5,30,0.549365072511137
"57","RETAIL STORE (FOOD)",NA,"TORONTO, ON","M4J 1M6","DANFORTH AVE","1210 DANFORTH AVE,TORONTO, ON,M4J 1M6",43.68173275,-79.3318173,30,1,0.5,32,0.167600636836141
"58","RETAIL STORE (FOOD)","MAIN DRUG MART","TORONTO, ON","M4X 1P9","PARLIAMENT ST","599 PARLIAMENT ST,TORONTO, ON,M4X 1P9",43.6679184,-79.3692424,30,1,0.5,26,0.0137622562495687
"59","RETAIL STORE (FOOD)","THE HARVEST WAGON","TORONTO, ON","M4W 2L7","YONGE ST","1103 YONGE ST,TORONTO, ON,M4W 2L7",43.6802236,-79.3906648,30,1,0.5,28,2.00106211557033
"60","RETAIL STORE (FOOD)","THE BIG CARROT","TORONTO, ON","M4K 1N8","DANFORTH AVE","348 DANFORTH AVE,TORONTO, ON,M4K 1N8",43.677502,-79.3528821,30,1,0.5,26,1.79467368793334
"61","RETAIL STORE (FOOD)","LESLIE GROVE PHARMACY","TORONTO, ON","M4M 1L4","QUEEN ST E","1176 QUEEN ST E,TORONTO, ON,M4M 1L4",43.66296538,-79.33212914,30,1,0.5,29,0.0954625418817388
"62","RETAIL STORE (FOOD)","FAIRWAY VARIETY","TORONTO, ON","M4X 1P5","PARLIAMENT ST","520 PARLIAMENT ST,TORONTO, ON,M4X 1P5",43.6659403,-79.3688294,30,1,0.5,25,0.27232666220516
"63","RETAIL STORE (FOOD)","THE BIG CARROT","TORONTO, ON","M4K 1N8","DANFORTH AVE","348 DANFORTH AVE,TORONTO, ON,M4K 1N8",43.677502,-79.3528821,30,1,0.5,29,2.27636732906773
"64","RETAIL STORE (FOOD)","JAMESTOWN MILK","TORONTO, ON","M4X 1P8","PARLIAMENT ST","592 PARLIAMENT ST,TORONTO, ON,M4X 1P8",43.6679858,-79.3696644,30,1,0.5,37,2.01115934728625
"65","RETAIL STORE (FOOD)","HEALTH SERVICE CENTRE","TORONTO, ON","M4C 1L7","DANFORTH AVE","2650 DANFORTH AVE,TORONTO, ON,M4C 1L7",43.68876756,-79.29969278,30,1,0.5,36,0.0645784670487046
"66","RETAIL STORE (FOOD)","MR GREEK MEAT MARKET","TORONTO, ON","M4J 1L2","DANFORTH AVE","801 DANFORTH AVE,TORONTO, ON,M4J 1L2",43.6795611294118,-79.3410373235294,30,1,0.5,26,0.605575217399746
"67","RETAIL STORE (FOOD)","STANBURY'S PHARMACY","TORONTO, ON","M4K 3W2","PAPE AVE","1032 PAPE AVE,TORONTO, ON,M4K 3W2",43.6875883,-79.3481303,30,1,0.5,36,0.68375641386956
"68","RETAIL STORE (FOOD)","PASCALE GOURMET","TORONTO, ON","M4P 2E7","YONGE ST","2393 YONGE ST,TORONTO, ON,M4P 2E7",43.7099676129032,-79.3988871258065,30,1,0.5,35,0.00779871092266455
"69","RETAIL STORE (FOOD)","NATURALLY YOURS HEALTH FOODS LTD.","TORONTO, ON","M4E 1S6","KINGSTON RD","919 KINGSTON RD,TORONTO, ON,M4E 1S6",43.6802354333333,-79.2889661888889,30,1,0.5,37,0.930522301192296
"70","RETAIL STORE (FOOD)",NA,"TORONTO, ON","M4P 2J3","YONGE ST","2566 YONGE ST,TORONTO, ON,M4P 2J3",43.7138313153846,-79.4000474538461,30,1,0.5,24,0.574125626379473
"71","RETAIL STORE (FOOD)","LUEN HOP CENTRE","TORONTO, ON","M4M 2G9","BROADVIEW AVE","326 BROADVIEW AVE,TORONTO, ON,M4M 2G9",43.6646024,-79.35243975,30,1,0.5,33,0.457464440260082
"72","RETAIL STORE (FOOD)","OTTWAY HERBALIST","TORONTO, ON","M4Y 2C5","CHURCH ST","453 CHURCH ST,TORONTO, ON,M4Y 2C5",43.6640386,-79.3801213,30,1,0.5,36,1.08247466939957
"73","RETAIL STORE (FOOD)","FANFARE FLOWERS","TORONTO, ON","M4S 2A2","YONGE ST","2023 YONGE ST,TORONTO, ON,M4S 2A2",43.7013584,-79.3971228,30,1,0.5,39,1.83076982564273
"74","RETAIL STORE (FOOD)","RUNNING ROOM CANADA","TORONTO, ON","M4L 1J1","QUEEN ST E","1977 QUEEN ST E,TORONTO, ON,M4L 1J1",43.6697719125,-79.30050235,30,1,0.5,22,0.322986071463674
"75","RETAIL STORE (FOOD)","LEASIDE COMMUNITY PHARMACY","TORONTO, ON","M4G 4E4","EGLINTON AVE E","795 EGLINTON AVE E,TORONTO, ON,M4G 4E4",43.7130454,-79.3661511173273,30,1,0.5,25,1.4767100586647
"76","RETAIL STORE (FOOD)","HASTY MARKET","TORONTO, ON","M4S 1G3","DAVISVILLE AVE","21 DAVISVILLE AVE,TORONTO, ON,M4S 1G3",43.6981765,-79.3957633,30,1,0.5,43,1.16550500686736
"77","RETAIL STORE (FOOD)","SOBEYS","TORONTO, ON","M4C 1L1","DANFORTH AVE","2451 DANFORTH AVE,TORONTO, ON,M4C 1L1",43.6873839,-79.3047551,30,1,0.5,30,0.881388221825373
"78","RETAIL STORE (FOOD)","THE BAGEL HOUSE","TORONTO, ON","M4G 3B6","BAYVIEW AVE","1548 BAYVIEW AVE,TORONTO, ON,M4G 3B6",43.7048498,-79.3750666,30,1,0.5,32,0.763720409362376
"79","RETAIL STORE (FOOD)","SMOKER'S DREAM","TORONTO, ON","M4H 1C3","OVERLEA BLVD","45 OVERLEA BLVD,TORONTO, ON,M4H 1C3",43.7061606,-79.3451616,30,1,0.5,28,0.107586440630257
"80","RETAIL STORE (FOOD)","DOUBLE DISCOUNT CONVENIENCE STORE","TORONTO, ON","M4J 1N4","DANFORTH AVE","1562 DANFORTH AVE,TORONTO, ON,M4J 1N4",43.68340864,-79.32403955,30,1,0.5,40,2.70563309243022
"81","RETAIL STORE (FOOD)","IQBAL HALAL FOODS","TORONTO, ON","M4H 1H2","THORNCLIFFE PARK DR","2 THORNCLIFFE PARK DR,TORONTO, ON,M4H 1H2",43.7059324,-79.352044,30,1,0.5,33,0.558504020329565
"82","RETAIL STORE (FOOD)","DOLLAR A M A","TORONTO, ON","M4C 1M9","DANFORTH AVE","3003 DANFORTH AVE,TORONTO, ON,M4C 1M9",43.689662,-79.2890060790984,30,1,0.5,32,3.5803124362365
"83","RETAIL STORE (FOOD)","DOLLAR A M A","TORONTO, ON","M4Y 2B7","YONGE ST","730 YONGE ST,TORONTO, ON,M4Y 2B7",43.6688113,-79.3868468,30,1,0.5,29,0.0912677621797159
"84","RETAIL STORE (FOOD)","NATURE'S HEALTH FOOD","TORONTO, ON","M4M 3G6","GERRARD ST E","1000 GERRARD ST E,TORONTO, ON,M4M 3G6",43.66930005,-79.3398612737603,30,1,0.5,28,0.0433164858259261
"85","RETAIL STORE (FOOD)","THE BIG CARROT","TORONTO, ON","M4K 1N8","DANFORTH AVE","320 DANFORTH AVE,TORONTO, ON,M4K 1N8",43.6774596,-79.3531237,30,1,0.5,25,0.963052328633976
"86","RETAIL STORE (FOOD)","MASELLIS SUPERMARKET","TORONTO, ON","M4J 1L9","DANFORTH AVE","906 DANFORTH AVE,TORONTO, ON,M4J 1L9",43.680237,-79.3390075,30,1,0.5,28,1.37204016647757
"87","RETAIL STORE (FOOD)","DOLLARAMA #213","TORONTO, ON","M4H 1C3","OVERLEA BLVD","45 OVERLEA BLVD,TORONTO, ON,M4H 1C3",43.7061606,-79.3451616,30,1,0.5,29,0.845654874066723
"88","RETAIL STORE (FOOD)","NATURE'S HEALTH FOOD","TORONTO, ON","M4C 1M9","DANFORTH AVE","3003 DANFORTH AVE,TORONTO, ON,M4C 1M9",43.689662,-79.2890060790984,30,1,0.5,31,0.0259140431880951
"89","RETAIL STORE (FOOD)","AMBAL TRADING","TORONTO, ON","M4X 1P9","PARLIAMENT ST","591 PARLIAMENT ST,TORONTO, ON,M4X 1P9",43.6676089,-79.3691722,30,1,0.5,28,2.12292304436181
"90","RETAIL STORE (FOOD)","DAI KUANG WAH HERBS","TORONTO, ON","M4M 1Y2","GERRARD ST E","595 GERRARD ST E,TORONTO, ON,M4M 1Y2",43.6655110683893,-79.3516896171308,30,1,0.5,31,2.31620763533528
"91","RETAIL STORE (FOOD)","LAIRD CONVENIENCE","TORONTO, ON","M4G 2L1","EGLINTON AVE E","868 EGLINTON AVE E,TORONTO, ON,M4G 2L1",43.713600887234,-79.3652903744681,30,1,0.5,28,1.91981021067028
"92","RETAIL STORE (FOOD)","PATISSERIE LA CIGOGNE","TORONTO, ON","M4G 3B7","BAYVIEW AVE","1626 BAYVIEW AVE,TORONTO, ON,M4G 3B7",43.7064565425,-79.37564309,30,1,0.5,27,1.54054786224386
"93","RETAIL STORE (FOOD)","ALEX CONVENIENCE","TORONTO, ON","M4N 2M4","YONGE ST","3344 YONGE ST,TORONTO, ON,M4N 2M4",43.7317096,-79.4041076,30,1,0.5,39,0.339358041994274
"94","RETAIL STORE (FOOD)","FRESH FROM THE FARM","TORONTO, ON","M4J 3S1","DONLANDS AVE","350 DONLANDS AVE,TORONTO, ON,M4J 3S1",43.6933051,-79.3427256,30,1,0.5,24,0.135484665670345
"95","RETAIL STORE (FOOD)","DUPL2X BUSINESS SERVICES","TORONTO, ON","M4W 3J6","BLOOR ST E","345 BLOOR ST E,TORONTO, ON,M4W 3J6",43.6718025,-79.3784904,30,1,0.5,23,0.245396713726223
"96","RETAIL STORE (FOOD)","CHEN'S ACUPUNTURE & HERBS","TORONTO, ON","M4M 1Y2","GERRARD ST E","637 GERRARD ST E,TORONTO, ON,M4M 1Y2",43.6657571,-79.3505784,30,1,0.5,36,0.0911632548086345
"97","RETAIL STORE (FOOD)","H P VARIETY STORE","TORONTO, ON","M4M 2G3","BROADVIEW AVE","235 1/2 BROADVIEW AVE,TORONTO, ON,M4M 2G3",43.6625337,-79.3513879,30,1,0.5,20,0.461528192739934
"98","RETAIL STORE (FOOD)","HOUSE OF TEA","TORONTO, ON","M4W 2K9","YONGE ST","1017 YONGE ST,TORONTO, ON,M4W 2K9",43.6773666,-79.3895053,30,1,0.5,32,1.14817657410623
"99","RETAIL STORE (FOOD)","GATEWAY NEWSTANDS # 109","TORONTO, ON","M4W 1A8","BLOOR ST E","2 BLOOR ST E,TORONTO, ON,M4W 1A8",43.6707855,-79.3856867,30,1,0.5,32,0.248417740687728
"100","RETAIL STORE (FOOD)","GATEWAY NEWSTANDS","TORONTO, ON","M4W 3G7","BLOOR ST E","20 BLOOR ST E,TORONTO, ON,M4W 3G7",43.6709328,-79.3845937,30,1,0.5,27,0.420572417322546
"101","RETAIL STORE (FOOD)","DAWES DOLLAR & VIDEOS","TORONTO, ON","M4B 2E6","DAWES RD","387 DAWES RD,TORONTO, ON,M4B 2E6",43.7015943857143,-79.2967441,30,1,0.5,33,2.08241858888332
"102","RETAIL STORE (FOOD)","THO KHANG DUONG HERBAL","TORONTO, ON","M4M 1Y2","GERRARD ST E","671 GERRARD ST E,TORONTO, ON,M4M 1Y2",43.6659682753907,-79.3496263050262,30,1,0.5,26,0.0278024829349821
"103","RETAIL STORE (FOOD)","COLES","TORONTO, ON","M4L 1J1","QUEEN ST E","2169 QUEEN ST E,TORONTO, ON,M4L 1J1",43.6703227,-79.2981001,30,1,0.5,35,0.953142817090166
"104","RETAIL STORE (FOOD)","INDIGO","TORONTO, ON","M4W 1A5","BLOOR ST W","55 BLOOR ST W,TORONTO, ON,M4W 1A5",43.6696176,-79.3887161,30,1,0.5,33,1.51915467335823
"105","RETAIL STORE (FOOD)","INDIGO","TORONTO, ON","M4P 1E4","YONGE ST","2300 YONGE ST,TORONTO, ON,M4P 1E4",43.7077702,-79.3991984,30,1,0.5,31,0.179063882678747
"106","RETAIL STORE (FOOD)","LILY TRADE","TORONTO, ON","M4L 1G7","QUEEN ST E","1710-1712 QUEEN ST E,TORONTO, ON,M4L 1G7",43.6671232,-79.3131038,30,1,0.5,29,3.39928713424091
"107","RETAIL STORE (FOOD)","SAKS FINE FOODS","TORONTO, ON","M4A 1W5","O'CONNOR DR","1677 O'CONNOR DR,TORONTO, ON,M4A 1W5",43.7168685,-79.3046099,30,1,0.5,24,0.355390734504908
"108","RETAIL STORE (FOOD)","TRUPTI ENTERPRISES","TORONTO, ON","M4H 1H2","THORNCLIFFE PARK DR","2 THORNCLIFFE PARK DR,TORONTO, ON,M4H 1H2",43.7059324,-79.352044,30,1,0.5,26,1.48555740338328
"109","RETAIL STORE (FOOD)","CABBAGE TOWN ORGANICS","TORONTO, ON","M4X 1P3","PARLIAMENT ST","499 PARLIAMENT ST,TORONTO, ON,M4X 1P3",43.6647636,-79.3680083,30,1,0.5,30,2.51005895236943
"110","RETAIL STORE (FOOD)","SHOPPERS DRUG MART #994","TORONTO, ON","M4J 1L2","DANFORTH AVE","755 DANFORTH AVE,TORONTO, ON,M4J 1L2",43.6792629,-79.3422668,30,1,0.5,35,0.413835437968373
"111","RETAIL STORE (FOOD)","EPI BREADS","TORONTO, ON","M4G 3B4","BAYVIEW AVE","1526 BAYVIEW AVE,TORONTO, ON,M4G 3B4",43.7040599,-79.3747139,30,1,0.5,25,1.88938564172711
"112","RETAIL STORE (FOOD)","DANFORTH MARKET","TORONTO, ON","M4C 1L7","DANFORTH AVE","2742 DANFORTH AVE,TORONTO, ON,M4C 1L7",43.6892412666667,-79.2975882333333,30,1,0.5,35,0.54707728466019
"113","RETAIL STORE (FOOD)","CIRCLE K","TORONTO, ON","M4P 2L8","MOUNT PLEASANT RD","957 MOUNT PLEASANT RD,TORONTO, ON,M4P 2L8",43.7128226,-79.391589,30,1,0.5,34,0.0414425721392035
"114","RETAIL STORE (FOOD)","WHITEHOUSE MEATS","TORONTO, ON","M4G 3B5","BAYVIEW AVE","1523 BAYVIEW AVE,TORONTO, ON,M4G 3B5",43.7045792,-79.3745199,30,1,0.5,38,0.278125206863426
"115","RETAIL STORE (FOOD)","GINKGO HEALTH SHOP","TORONTO, ON","M4W 3L8","BLOOR ST W","50 BLOOR ST W,TORONTO, ON,M4W 3L8",43.6701518,-79.3882988,30,1,0.5,29,0.35751614816186
"116","RETAIL STORE (FOOD)","BADALI'S FRUIT MARKET","TORONTO, ON","M4G 3B5","BAYVIEW AVE","1587 BAYVIEW AVE,TORONTO, ON,M4G 3B5",43.7059241083005,-79.3750594656157,30,1,0.5,23,1.01717628161879
"117","RETAIL STORE (FOOD)","HOME DEPOT","TORONTO, ON","M4M 3G6","GERRARD ST E","1000 GERRARD ST E,TORONTO, ON,M4M 3G6",43.66930005,-79.3398612737603,30,1,0.5,20,0.746299722033704
"118","RETAIL STORE (FOOD)","HOME DEPOT","TORONTO, ON","M4G 4H9","WICKSTEED AVE","101 WICKSTEED AVE,TORONTO, ON,M4G 4H9",43.7113175,-79.3585155,30,1,0.5,31,1.13047778229685
"119","RETAIL STORE (FOOD)","JAMES FRUIT MART","TORONTO, ON","M4C 1L1","DANFORTH AVE","2541 DANFORTH AVE,TORONTO, ON,M4C 1L1",43.6879419,-79.3021182714286,30,1,0.5,28,2.6869288625798
"120","RETAIL STORE (FOOD)","SMITH'S PHARMACY","TORONTO, ON","M4N 2N3","YONGE ST","3463 YONGE ST,TORONTO, ON,M4N 2N3",43.7340584909091,-79.4042992181818,30,1,0.5,28,0.554201659280807
"121","RETAIL STORE (FOOD)","KULLUBI INJERA","TORONTO, ON","M4C 1J4","DANFORTH AVE","1936 DANFORTH AVE,TORONTO, ON,M4C 1J4",43.68514052,-79.3159202,30,1,0.5,25,1.16546621986168
"122","RETAIL STORE (FOOD)","BULK BARN","TORONTO, ON","M4C 1M9","DANFORTH AVE","3003 DANFORTH AVE,TORONTO, ON,M4C 1M9",43.689662,-79.2890060790984,30,1,0.5,33,0.470149066764861
"123","RETAIL STORE (FOOD)","SUPER J.C. VARIETY","TORONTO, ON","M4C 2C3","SECORD AVE","2 SECORD AVE,TORONTO, ON,M4C 2C3",43.6927375,-79.302219,30,1,0.5,31,0.117545557674021
"124","RETAIL STORE (FOOD)","SHIRIN MAHAL BAKERY & SWEETS","TORONTO, ON","M4H 1H2","THORNCLIFFE PARK DR","2 THORNCLIFFE PARK DR,TORONTO, ON,M4H 1H2",43.7059324,-79.352044,30,1,0.5,40,1.08692131280423
"125","RETAIL STORE (FOOD)","ROCCA'S NO FRILLS","TORONTO, ON","M4L 3B5","COXWELL AVE","269 COXWELL AVE,TORONTO, ON,M4L 3B5",43.673422372093,-79.3193231418605,30,1,0.5,29,1.13895621798457
"126","RETAIL STORE (FOOD)",NA,"TORONTO, ON","M4E 1E3","QUEEN ST E","2136 QUEEN ST E,TORONTO, ON,M4E 1E3",43.6715071,-79.2936222,30,1,0.5,32,0.534162985160947
"127","RETAIL STORE (FOOD)","SHOPPERS DRUG MART #1232","TORONTO, ON","M4K 1N1","DANFORTH AVE","180 DANFORTH AVE,TORONTO, ON,M4K 1N1",43.6767550489362,-79.3566742446808,30,1,0.5,33,2.34825672076137
"128","RETAIL STORE (FOOD)","GRILLTIME GOURMET MEAT SHOPS","TORONTO, ON","M4G 3V1","LAIRD DR","62 LAIRD DR,TORONTO, ON,M4G 3V1",43.7045842,-79.3613802,30,1,0.5,19,0.446449912618846
"129","RETAIL STORE (FOOD)","ABSOLUTE BAKERY CAFE","TORONTO, ON","M4X 1P9","PARLIAMENT ST","589 PARLIAMENT ST,TORONTO, ON,M4X 1P9",43.6675627,-79.3691503,30,1,0.5,30,3.52954189350996
"130","RETAIL STORE (FOOD)","METRO #37","TORONTO, ON","M4C 1M9","DANFORTH AVE","3003 DANFORTH AVE,TORONTO, ON,M4C 1M9",43.689662,-79.2890060790984,30,1,0.5,33,0.854538589673948
"131","RETAIL STORE (FOOD)","METRO #752","TORONTO, ON","M4P 1E4","YONGE ST","2300 YONGE ST,TORONTO, ON,M4P 1E4",43.7077702,-79.3991984,30,1,0.5,39,0.33335710503161
"132","RETAIL STORE (FOOD)","METRO #758","TORONTO, ON","M4P 1P1","EGLINTON AVE E","656 EGLINTON AVE E,TORONTO, ON,M4P 1P1",43.7112007,-79.3785436499278,30,1,0.5,25,1.60235264353417
"133","RETAIL STORE (FOOD)","FOOD BASICS #875","TORONTO, ON","M4M 3G6","GERRARD ST E","1000 GERRARD ST E,TORONTO, ON,M4M 3G6",43.66930005,-79.3398612737603,30,1,0.5,33,0.323829800316909
"134","RETAIL STORE (FOOD)","FOOD BASICS #672","TORONTO, ON","M4H 1C3","OVERLEA BLVD","45 OVERLEA BLVD,TORONTO, ON,M4H 1C3",43.7061606,-79.3451616,30,1,0.5,34,2.47464984083984
"135","RETAIL STORE (FOOD)","GATEWAY NEWSTAND # 138","TORONTO, ON","M4K 1N1","DANFORTH AVE","90 DANFORTH AVE,TORONTO, ON,M4K 1N1",43.6763669,-79.3586755,30,1,0.5,36,0.584520368371159
"136","RETAIL STORE (FOOD)","CARTER'S ICE CREAM","TORONTO, ON","M4C 3X4","WOODMOUNT AVE","3 WOODMOUNT AVE,TORONTO, ON,M4C 3X4",43.6854255,-79.3152068,30,1,0.5,29,1.70589641473236
"137","RETAIL STORE (FOOD)","HOMESENSE STORE (#71)","TORONTO, ON","M5B 1M4","YONGE ST","195 YONGE ST,TORONTO, ON,M5B 1M4",43.6531966,-79.3794568,30,1,0.5,37,0.26769761526324
"138","RETAIL STORE (FOOD)","WINNERS (STORE #381)","TORONTO, ON","M4M 3G6","GERRARD ST E","1000 GERRARD ST E,TORONTO, ON,M4M 3G6",43.66930005,-79.3398612737603,30,1,0.5,26,1.10650906622224
"139","RETAIL STORE (FOOD)","HENRY'S MILK","TORONTO, ON","M4J 3S1","DONLANDS AVE","346 DONLANDS AVE,TORONTO, ON,M4J 3S1",43.6931111285714,-79.3426685142857,30,1,0.5,25,0.820926469708693
"140","RETAIL STORE (FOOD)","PAPERBOY CARDS & GIFTS INC","TORONTO, ON","M4T 1K2","PLEASANT BLVD","7 PLEASANT BLVD,TORONTO, ON,M4T 1K2",43.687115,-79.393144,30,1,0.5,35,4.04837413532927
"141","RETAIL STORE (FOOD)","ABSOLUTE DOLLAR STORE","TORONTO, ON","M4M 3G6","GERRARD ST E","1000 GERRARD ST E,TORONTO, ON,M4M 3G6",43.66930005,-79.3398612737603,30,1,0.5,34,0.193447696045041
"142","RETAIL STORE (FOOD)","NEW SHOPRITE","TORONTO, ON","M6K 1M4","QUEEN ST W","1474 QUEEN ST W,TORONTO, ON,M6K 1M4",43.6406499,-79.437078,30,1,0.5,25,3.07068622095471
"143","RETAIL STORE (FOOD)","ROSEDALE PHARMACY","TORONTO, ON","M4X 1W4","SHERBOURNE ST","600 SHERBOURNE ST,TORONTO, ON,M4X 1W4",43.6717655,-79.3767866,30,1,0.5,40,0.282755241729319
"144","RETAIL STORE (FOOD)","SOBEYS","TORONTO, ON","M4S 1C1","BALLIOL ST","22 BALLIOL ST,TORONTO, ON,M4S 1C1",43.6978473,-79.3955072,30,1,0.5,34,2.09544113703704
"145","RETAIL STORE (FOOD)","BRAVO PIZZA","TORONTO, ON","M4G 1X2","MILLWOOD RD","901 MILLWOOD RD,TORONTO, ON,M4G 1X2",43.7032867097146,-79.3640649159742,30,1,0.5,26,0.116954099852592
"146","RETAIL STORE (FOOD)","BEACH PLAZA VARIETY","TORONTO, ON","M4E 1G2","QUEEN ST E","2254 QUEEN ST E,TORONTO, ON,M4E 1G2",43.6729899,-79.2865637,30,1,0.5,40,0.392216133435467
"147","RETAIL STORE (FOOD)","TOP JUSIL CONVENIENCE","TORONTO, ON","M4P 2C6","YONGE ST","2305 YONGE ST,TORONTO, ON,M4P 2C6",43.7077762,-79.3983618,30,1,0.5,36,0.807266235309553
"148","RETAIL STORE (FOOD)","DOLLARAMA","TORONTO, ON","M4L 3B5","COXWELL AVE","293 COXWELL AVE,TORONTO, ON,M4L 3B5",43.6739643813954,-79.319548127907,30,1,0.5,17,1.30665083504738
"149","RETAIL STORE (FOOD)","GREEN VALLEY PRODUCTS","TORONTO, ON","M4P 2E7","YONGE ST","2443 YONGE ST,TORONTO, ON,M4P 2E7",43.710897,-79.3990474,30,1,0.5,29,0.98627213029031
"150","RETAIL STORE (FOOD)","PACE PHARMACY","TORONTO, ON","M4Y 1N1","ISABELLA ST","14 ISABELLA ST,TORONTO, ON,M4Y 1N1",43.6677809,-79.3851564,30,1,0.5,22,2.1039067635915
"151","RETAIL STORE (FOOD)","INDEPENDENT CITY MARKET","TORONTO, ON","M4W 1A5","BLOOR ST W","55 BLOOR ST W,TORONTO, ON,M4W 1A5",43.6696176,-79.3887161,30,1,0.5,35,2.16801289270136
"152","RETAIL STORE (FOOD)","COBS BREAD","TORONTO, ON","M4G 3B5","BAYVIEW AVE","1539 BAYVIEW AVE,TORONTO, ON,M4G 3B5",43.7050463846154,-79.3747195769231,30,1,0.5,28,0.0962716611102223
"153","RETAIL STORE (FOOD)","FARMER FRUIT MARKET","TORONTO, ON","M4K 1N1","DANFORTH AVE","140 DANFORTH AVE,TORONTO, ON,M4K 1N1",43.6765825382979,-79.3575636914894,30,1,0.5,21,0.276764144638424
"154","RETAIL STORE (FOOD)","HOME SENSE","TORONTO, ON","M4G 4B5","EGLINTON AVE E","957 EGLINTON AVE E,TORONTO, ON,M4G 4B5",43.7153622405774,-79.3552200938709,30,1,0.5,26,0.149953913874924
"155","RETAIL STORE (FOOD)","PLANK ROAD MARKET","TORONTO, ON","M4C 1H8","DANFORTH AVE","1716 DANFORTH AVE,TORONTO, ON,M4C 1H8",43.6843108,-79.3199899,30,1,0.5,32,0.114458171978211
"156","RETAIL STORE (FOOD)","INTERNATIONAL NEWS","TORONTO, ON","M4W 1A8","BLOOR ST E","2 BLOOR ST E,TORONTO, ON,M4W 1A8",43.6707855,-79.3856867,30,1,0.5,36,0.112725140526891
"157","RETAIL STORE (FOOD)","HOOKED","TORONTO, ON","M4M 1J3","QUEEN ST E","888 QUEEN ST E,TORONTO, ON,M4M 1J3",43.6604543,-79.3432966,30,1,0.5,30,0.093560173176229
"158","RETAIL STORE (FOOD)","SUSHI SHOP","TORONTO, ON","M4P 1E4","YONGE ST","2300 YONGE ST,TORONTO, ON,M4P 1E4",43.7077702,-79.3991984,30,1,0.5,30,0.0854582522746159
"159","RETAIL STORE (FOOD)","YONGE SEAFOOD GOURMET","TORONTO, ON","M4S 1Z9","YONGE ST","2044 YONGE ST,TORONTO, ON,M4S 1Z9",43.7013953,-79.3974148,30,1,0.5,27,0.0233028708025813
"160","RETAIL STORE (FOOD)","MARCHELEO'S MARKETPLACE","TORONTO, ON","M4P 1J4","EGLINTON AVE E","181 EGLINTON AVE E,TORONTO, ON,M4P 1J4",43.7077757,-79.3919345771125,30,1,0.5,48,1.34775170027734
"161","RETAIL STORE (FOOD)","SHOPPER'S DRUG MART #841","TORONTO, ON","M4P 2E5","YONGE ST","2345 YONGE ST,TORONTO, ON,M4P 2E5",43.708823,-79.3982801,30,1,0.5,28,0.8666531724558
"162","RETAIL STORE (FOOD)","CHESTER VARIETY","TORONTO, ON","M4K 1P3","DANFORTH AVE","410 DANFORTH AVE,TORONTO, ON,M4K 1P3",43.6778063,-79.3513446111111,30,1,0.5,35,1.03781741573931
"163","RETAIL STORE (FOOD)","THE BUTCHER'S SON","TORONTO, ON","M4S 2A2","YONGE ST","2055 YONGE ST,TORONTO, ON,M4S 2A2",43.7020516,-79.3971481,30,1,0.5,21,1.43093135572019
"164","RETAIL STORE (FOOD)","NADEGE","TORONTO, ON","M4W 2L7","YONGE ST","1099 YONGE ST,TORONTO, ON,M4W 2L7",43.6801072,-79.3906272,30,1,0.5,27,1.01382555749497
"165","RETAIL STORE (FOOD)","LA CASA DE FUMA CIGARS TOBACCO EMPORIUM","TORONTO, ON","M4N 2N1","YONGE ST","3433 YONGE ST,TORONTO, ON,M4N 2N1",43.7333689714286,-79.4041221857143,30,1,0.5,24,1.37299585245074
"166","RETAIL STORE (FOOD)","GATEWAY NEWSTANDS","TORONTO, ON","M4C 1L2","DANFORTH AVE","2550 DANFORTH AVE,TORONTO, ON,M4C 1L2",43.688216,-79.3021142,30,1,0.5,25,1.125477055977
"167","RETAIL STORE (FOOD)","BAYVIEW JUG MILK","TORONTO, ON","M4G 3B5","BAYVIEW AVE","1639 BAYVIEW AVE,TORONTO, ON,M4G 3B5",43.7068797,-79.3753986,30,1,0.5,24,0.0248214565217495
"168","RETAIL STORE (FOOD)","TOBY'S FOOD MART","TORONTO, ON","M4L 1S6","KINGSTON RD","86 KINGSTON RD,TORONTO, ON,M4L 1S6",43.669477225,-79.3116292875,30,1,0.5,25,2.23143347153876
"169","RETAIL STORE (FOOD)","JIAHUA TRADING COMPANY","TORONTO, ON","M4M 1Y2","GERRARD ST E","597 GERRARD ST E,TORONTO, ON,M4M 1Y2",43.6655223854866,-79.3516385214135,30,1,0.5,34,0.11055084784578
"170","RETAIL STORE (FOOD)","DAISY MART","TORONTO, ON","M4L 1Y7","GERRARD ST E","1274 GERRARD ST E,TORONTO, ON,M4L 1Y7",43.6711015,-79.3278332,30,1,0.5,44,1.37411416783453
"171","RETAIL STORE (FOOD)","THE MEAT DEPT.","TORONTO, ON","M4K 1N2","DANFORTH AVE","207 DANFORTH AVE,TORONTO, ON,M4K 1N2",43.6766465384615,-79.3558376076923,30,1,0.5,33,0.215264485683292
"172","RETAIL STORE (FOOD)","CHURCH STREET EXPRESS PIZZA","TORONTO, ON","M4Y 2C5","CHURCH ST","447 CHURCH ST,TORONTO, ON,M4Y 2C5",43.6638964,-79.3800603,30,1,0.5,28,0.171435381285846
"173","RETAIL STORE (FOOD)","PEEK FREAN CO.-COMPANIE PEEK FREAN","TORONTO, ON","M4B 2T8","O'CONNOR DR","1400 O'CONNOR DR,TORONTO, ON,M4B 2T8",43.712842,-79.3075535,30,1,0.5,20,0.748479526582333
"174","RETAIL STORE (FOOD)","DANFORTH NEIGHBOURHOOD PHARMACY CARE","TORONTO, ON","M4C 1K9","DANFORTH AVE","2416 DANFORTH AVE,TORONTO, ON,M4C 1K9",43.6876611534884,-79.3049552488372,30,1,0.5,20,1.19089590195091
"175","RETAIL STORE (FOOD)","LOBLAWS","TORONTO, ON","M4M 3H9","LESLIE ST","17 LESLIE ST,TORONTO, ON,M4M 3H9",43.6608477,-79.3289747,30,1,0.5,38,0.297409349607163
"176","RETAIL STORE (FOOD)","LOBLAWS","TORONTO, ON","M4E 3W2","MUSGRAVE ST","50 MUSGRAVE ST,TORONTO, ON,M4E 3W2",43.6879681,-79.2872555,30,1,0.5,31,0.839689784641278
"177","RETAIL STORE (FOOD)","LOBLAWS","TORONTO, ON","M4H 1P6","REDWAY RD","11 REDWAY RD,TORONTO, ON,M4H 1P6",43.69923705,-79.359679679141,30,1,0.5,29,1.2370709022087
"178","RETAIL STORE (FOOD)","LOBLAWS","TORONTO, ON","M4K 2P1","BROADVIEW AVE","720 BROADVIEW AVE,TORONTO, ON,M4K 2P1",43.6752255,-79.3584335371731,30,1,0.5,29,1.29012060719998
"179","RETAIL STORE (FOOD)","DOLLARAMA #794","TORONTO, ON","M4G 3B5","BAYVIEW AVE","1531 BAYVIEW AVE,TORONTO, ON,M4G 3B5",43.7047955,-79.3745843,30,1,0.5,33,0.814576657941857
"180","RETAIL STORE (FOOD)","BENTO SUSHI","TORONTO, ON","M4S 1C1","BALLIOL ST","22 BALLIOL ST,TORONTO, ON,M4S 1C1",43.6978473,-79.3955072,30,1,0.5,33,0.161588980598693
"181","RETAIL STORE (FOOD)","BENTO SUSHI","TORONTO, ON","M4E 3W2","MUSGRAVE ST","50 MUSGRAVE ST,TORONTO, ON,M4E 3W2",43.6879681,-79.2872555,30,1,0.5,29,0.434832629399244
"182","RETAIL STORE (FOOD)","BENTO SUSHI","TORONTO, ON","M4C 1M9","DANFORTH AVE","3003 DANFORTH AVE,TORONTO, ON,M4C 1M9",43.689662,-79.2890060790984,30,1,0.5,48,0.280491680838933
"183","RETAIL STORE (FOOD)","BENTO SUSHI","TORONTO, ON","M4W 1A5","BLOOR ST W","55 BLOOR ST W,TORONTO, ON,M4W 1A5",43.6696176,-79.3887161,30,1,0.5,33,2.1264469277924
"184","RETAIL STORE (FOOD)","BENTO SUSHI","TORONTO, ON","M4G 3T7","LAIRD DR","85 LAIRD DR,TORONTO, ON,M4G 3T7",43.7056137,-79.3611526,30,1,0.5,31,2.47090581605647
"185","RETAIL STORE (FOOD)","ROWE FARM","TORONTO, ON","M4M 1J4","QUEEN ST E","893 QUEEN ST E,TORONTO, ON,M4M 1J4",43.6604747769231,-79.3420831384615,30,1,0.5,33,0.0255896996609886
"186","RETAIL STORE (FOOD)","REAL FRUIT BUBBLE TEA","TORONTO, ON","M4M 3G6","GERRARD ST E","1000 GERRARD ST E,TORONTO, ON,M4M 3G6",43.66930005,-79.3398612737603,30,1,0.5,31,1.35554505507917
"187","RETAIL STORE (FOOD)","MAJOR CONVENIENCE","TORONTO, ON","M4L 1G7","QUEEN ST E","1718 QUEEN ST E,TORONTO, ON,M4L 1G7",43.6674989578947,-79.3120073789474,30,1,0.5,31,0.0713986747737457
"188","RETAIL STORE (FOOD)","DONG MING HONG TRADING","TORONTO, ON","M4M 2H1","BROADVIEW AVE","357 BROADVIEW AVE,TORONTO, ON,M4M 2H1",43.6648247,-79.3522086,30,1,0.5,38,0.147055419314019
"189","RETAIL STORE (FOOD)","WALMART SUPERCENTRE","TORONTO, ON","M4M 3G6","GERRARD ST E","1000 GERRARD ST E,TORONTO, ON,M4M 3G6",43.66930005,-79.3398612737603,30,1,0.5,31,0.258358381312878
"190","RETAIL STORE (FOOD)","KALAIMAHAL BOOKS & CONVENIENCE STORE","TORONTO, ON","M4X 1P8","PARLIAMENT ST","566 PARLIAMENT ST,TORONTO, ON,M4X 1P8",43.6673898,-79.3694062,30,1,0.5,38,0.0169570269063115
"191","RETAIL STORE (FOOD)","REAL FRUIT BUBBLE TEA INC","TORONTO, ON","M4H 1C3","OVERLEA BLVD","45 OVERLEA BLVD,TORONTO, ON,M4H 1C3",43.7061606,-79.3451616,30,1,0.5,32,0.565362616907805
"192","RETAIL STORE (FOOD)","SHOPPERS DRUG MART","TORONTO, ON","M4X 1W7","SHERBOURNE ST","565 SHERBOURNE ST,TORONTO, ON,M4X 1W7",43.6699451,-79.375363496437,30,1,0.5,33,1.04377094652028
"193","RETAIL STORE (FOOD)","CARE AND HEALTH CENTRE PHARMACY","TORONTO, ON","M4C 1M1","DANFORTH AVE","2928 DANFORTH AVE,TORONTO, ON,M4C 1M1",43.6901795416667,-79.293404575,30,1,0.5,34,1.37568184822322
"194","RETAIL STORE (FOOD)","OURWELLNESS","TORONTO, ON","M4P 2H6","YONGE ST","2465 YONGE ST,TORONTO, ON,M4P 2H6",43.7114934,-79.3991975333333,30,1,0.5,30,0.742440548838263
"195","RETAIL STORE (FOOD)","DANFORTH MEDICAL PHARMACY","TORONTO, ON","M4J 1M3","DANFORTH AVE","1156 DANFORTH AVE,TORONTO, ON,M4J 1M3",43.6814106857143,-79.3333255142857,30,1,0.5,37,0.303528151940554
"196","RETAIL STORE (FOOD)","FRESH BUY MARKET","TORONTO, ON","M4S 1Z3","YONGE ST","1913 YONGE ST,TORONTO, ON,M4S 1Z3",43.6985642,-79.3964518,30,1,0.5,34,1.72479773548345
"197","RETAIL STORE (FOOD)","SUPER EXPRESS CONVENIENCE","TORONTO, ON","M4P 2Y1","EGLINTON AVE E","110 EGLINTON AVE E,TORONTO, ON,M4P 2Y1",43.707581,-79.395191,30,1,0.5,22,0.746055234815561
"198","RETAIL STORE (FOOD)","7-ELEVEN","TORONTO, ON","M4P 3A1","EGLINTON AVE E","1 EGLINTON AVE E,TORONTO, ON,M4P 3A1",43.7067402,-79.3975989,30,1,0.5,30,0.129657574929297
"199","RETAIL STORE (FOOD)","SUBWAY SANDWICHES","TORONTO, ON","M4W 1A8","BLOOR ST E","2 BLOOR ST E,TORONTO, ON,M4W 1A8",43.6707855,-79.3856867,30,1,0.5,30,0.406356001738459
"200","RETAIL STORE (FOOD)","ALEX FARM PRODUCTS AT DANFORTH","TORONTO, ON","M4K 1P1","DANFORTH AVE","377 DANFORTH AVE,TORONTO, ON,M4K 1P1",43.677408325,-79.351992175,30,1,0.5,32,0.1531425660703
"201","RETAIL STORE (FOOD)","GAIA NATURAL FOODS","TORONTO, ON","M4G 2L1","EGLINTON AVE E","864 EGLINTON AVE E,TORONTO, ON,M4G 2L1",43.7136165,-79.3653955,30,1,0.5,44,0.730676998751859
"202","RETAIL STORE (FOOD)","MEDICARE DRUG MART","TORONTO, ON","M4C 1L7","DANFORTH AVE","2772 DANFORTH AVE,TORONTO, ON,M4C 1L7",43.6893715166667,-79.2970299208333,30,1,0.5,25,1.34388394649596
"203","RETAIL STORE (FOOD)","BAYVIEW NATURAL FOODS","TORONTO, ON","M4G 3B7","BAYVIEW AVE","1622 BAYVIEW AVE,TORONTO, ON,M4G 3B7",43.7063798975,-79.37561343,30,1,0.5,33,1.54356864535015
"204","RETAIL STORE (FOOD)","R C PURDY CHOCOLATES","TORONTO, ON","M4W 3G7","BLOOR ST E","20 BLOOR ST E,TORONTO, ON,M4W 3G7",43.6709328,-79.3845937,30,1,0.5,31,0.511788051575422
"205","RETAIL STORE (FOOD)","PLATON VARIETY AND DOLLAR STORE","TORONTO, ON","M4J 1L2","DANFORTH AVE","781 DANFORTH AVE,TORONTO, ON,M4J 1L2",43.6794416,-79.3416575,30,1,0.5,30,2.74024610395048
"206","RETAIL STORE (FOOD)","DOLLARAMA #885","TORONTO, ON","M4J 1L2","DANFORTH AVE","685 DANFORTH AVE,TORONTO, ON,M4J 1L2",43.6789963169765,-79.3438831479345,30,1,0.5,32,2.40788177980987
"207","RETAIL STORE (FOOD)","EASY LIVING DEPOT","TORONTO, ON","M4M 2G9","BROADVIEW AVE","328 BROADVIEW AVE,TORONTO, ON,M4M 2G9",43.6646355,-79.3524532,30,1,0.5,27,1.67183926693144
"208","RETAIL STORE (FOOD)","BOOSTER JUICE","TORONTO, ON","M4P 1E4","YONGE ST","2300 YONGE ST,TORONTO, ON,M4P 1E4",43.7077702,-79.3991984,30,1,0.5,40,0.487203466705978
"209","RETAIL STORE (FOOD)","PESTACIO DRIED FRUITS, NUTS & INTERNATIONAL DELICACIES","TORONTO, ON","M4N 2M4","YONGE ST","3322 YONGE ST,TORONTO, ON,M4N 2M4",43.7311915916667,-79.4039584583333,30,1,0.5,33,0.11615716246888
"210","RETAIL STORE (FOOD)","FRUITS BASKET","TORONTO, ON","M4S 1Z3","YONGE ST","1919 YONGE ST,TORONTO, ON,M4S 1Z3",43.6986267142857,-79.396578,30,1,0.5,29,0.644804702140391
"211","RETAIL STORE (FOOD)","GREENWOOD VARIETY STORE","TORONTO, ON","M4J 5B2","UNITY RD","100 UNITY RD,TORONTO, ON,M4J 5B2",43.6776062,-79.330417790536,30,1,0.5,28,0.0322623662650585
"212","RETAIL STORE (FOOD)","SUSHI CAFE","TORONTO, ON","M4X 1W4","SHERBOURNE ST","600 SHERBOURNE ST,TORONTO, ON,M4X 1W4",43.6717655,-79.3767866,30,1,0.5,27,1.21250353004308
"213","RETAIL STORE (FOOD)","GATEWAY NEWSTAND #189","TORONTO, ON","M4M 3G6","GERRARD ST E","1000 GERRARD ST E,TORONTO, ON,M4M 3G6",43.66930005,-79.3398612737603,30,1,0.5,31,0.770082455086422
"214","RETAIL STORE (FOOD)","SAVORY THYMES","TORONTO, ON","M4G 3B5","BAYVIEW AVE","1535-1537 BAYVIEW AVE,TORONTO, ON,M4G 3B5",43.7057105,-79.3751489,30,1,0.5,41,1.74127684711459
"215","RETAIL STORE (FOOD)","PARLIAMENT SMOKE & GIFT","TORONTO, ON","M4X 1P9","PARLIAMENT ST","609 PARLIAMENT ST,TORONTO, ON,M4X 1P9",43.668079,-79.369308,30,1,0.5,23,4.96623616077402
"216","RETAIL STORE (FOOD)","FAT BASTARD BURRITO","TORONTO, ON","M4Y 1Z8","YONGE ST","634 YONGE ST,TORONTO, ON,M4Y 1Z8",43.6663433,-79.3852921,30,1,0.5,22,0.573010875377804
"217","RETAIL STORE (FOOD)","DOLLARAMA","TORONTO, ON","M4W 1A8","BLOOR ST E","2 BLOOR ST E,TORONTO, ON,M4W 1A8",43.6707855,-79.3856867,30,1,0.5,40,0.784562203991127
"218","RETAIL STORE (FOOD)","K&S MILK STORE","TORONTO, ON","M4L 1T9","KINGSTON RD","438 KINGSTON RD,TORONTO, ON,M4L 1T9",43.6769545,-79.3043561,30,1,0.5,38,0.270243258215487
"219","RETAIL STORE (FOOD)","COBS BREAD","TORONTO, ON","M4L 1J1","QUEEN ST E","1975 QUEEN ST E,TORONTO, ON,M4L 1J1",43.6697803,-79.3006173,30,1,0.5,29,0.416036385616129
"220","RETAIL STORE (FOOD)","BEANWISE","TORONTO, ON","M4B 2T8","O'CONNOR DR","1400 O'CONNOR DR,TORONTO, ON,M4B 2T8",43.712842,-79.3075535,30,1,0.5,32,0.562930997461081
"221","RETAIL STORE (FOOD)","OLLIFEE","TORONTO, ON","M4W 2L7","YONGE ST","1097 YONGE ST,TORONTO, ON,M4W 2L7",43.6800674,-79.3906138,30,1,0.5,34,0.554036703892052
"222","RETAIL STORE (FOOD)","EAST OF YORK GOURMET FOOD COMPANY","TORONTO, ON","M4C 1J4","DANFORTH AVE","1904 DANFORTH AVE,TORONTO, ON,M4C 1J4",43.6850087125,-79.3165702791667,30,1,0.5,24,0.314735547173768
"223","RETAIL STORE (FOOD)","DANIELZ BREAD","TORONTO, ON","M4N 2L2","YONGE ST","3208 YONGE ST,TORONTO, ON,M4N 2L2",43.7284747666667,-79.4032758,30,1,0.5,42,0.575513513846699
"224","RETAIL STORE (FOOD)","THE NUTTY CHOCOLATIER","TORONTO, ON","M4E 1E5","QUEEN ST E","2179 QUEEN ST E,TORONTO, ON,M4E 1E5",43.6704254142857,-79.2975186714286,30,1,0.5,29,2.57298169461577
"225","RETAIL STORE (FOOD)","TIM HORTONS #5545","TORONTO, ON","M4W 1A8","BLOOR ST E","2 BLOOR ST E,TORONTO, ON,M4W 1A8",43.6707855,-79.3856867,30,1,0.5,27,1.87145708120408
"226","RETAIL STORE (FOOD)","LESLIEVILLE CHEESE MARKET","TORONTO, ON","M4M 1J4","QUEEN ST E","891 QUEEN ST E,TORONTO, ON,M4M 1J4",43.6604574,-79.3422118,30,1,0.5,28,0.16029587910765
"227","RETAIL STORE (FOOD)","JONES FAMILY MART","TORONTO, ON","M4J 3G4","JONES AVE","349 JONES AVE,TORONTO, ON,M4J 3G4",43.6727826,-79.3369358,30,1,0.5,21,0.147179226994582
"228","RETAIL STORE (FOOD)","TAO TEA LEAF","TORONTO, ON","M4W 2J2","YONGE ST","934 YONGE ST,TORONTO, ON,M4W 2J2",43.6745081,-79.3887399,30,1,0.5,33,0.919536065268231
"229","RETAIL STORE (FOOD)","SALAD DAYS","TORONTO, ON","M4W 1A8","BLOOR ST E","2 BLOOR ST E,TORONTO, ON,M4W 1A8",43.6707855,-79.3856867,30,1,0.5,34,0.0769242303764453
"230","RETAIL STORE (FOOD)","ST DAMIAN PHARMACEUTICALS","TORONTO, ON","M4L 1H9","QUEEN ST E","1967 QUEEN ST E,TORONTO, ON,M4L 1H9",43.66958516,-79.30136998,30,1,0.5,28,0.208192964139848
"231","RETAIL STORE (FOOD)","SUBHAN HALAL PIZZA & CHICKEN","TORONTO, ON","M4C 1M6","DANFORTH AVE","2970 DANFORTH AVE,TORONTO, ON,M4C 1M6",43.6905375,-79.292160565625,30,1,0.5,26,0.638559148646891
"232","RETAIL STORE (FOOD)","MID YONGE CARDS AND MORE","TORONTO, ON","M4P 2H5","YONGE ST","2482 YONGE ST,TORONTO, ON,M4P 2H5",43.71163,-79.399609,30,1,0.5,32,0.908193768309083
"233","RETAIL STORE (FOOD)","DOUGH INC","TORONTO, ON","M4K 1N2","DANFORTH AVE","173 DANFORTH AVE,TORONTO, ON,M4K 1N2",43.6764184,-79.3566326781045,30,1,0.5,32,2.29265894169424
"234","RETAIL STORE (FOOD)","LE GREEKA","TORONTO, ON","M4M 3G6","GERRARD ST E","1000 GERRARD ST E,TORONTO, ON,M4M 3G6",43.66930005,-79.3398612737603,30,1,0.5,25,1.17450935109974
"235","RETAIL STORE (FOOD)","ZARIKO UNITED, OLD'S COOL GENERAL STORE","TORONTO, ON","M4C 4T4","WESTLAKE AVE","250 WESTLAKE AVE,TORONTO, ON,M4C 4T4",43.6945074,-79.3084526,30,1,0.5,33,0.639126630499959
"236","RETAIL STORE (FOOD)","NEW RESOURCES TRADING COMPANY","TORONTO, ON","M4J 3G8","JONES AVE","489 JONES AVE,TORONTO, ON,M4J 3G8",43.6768357,-79.3386285,30,1,0.5,31,0.692196084186435
"237","RETAIL STORE (FOOD)","SAM'S I.D.A. PHARMACY","TORONTO, ON","M4S 3E2","YONGE ST","1920 YONGE ST,TORONTO, ON,M4S 3E2",43.6987153,-79.3968795,30,1,0.5,20,0.0704962639138103
"238","RETAIL STORE (FOOD)","WINNERS #443","TORONTO, ON","M4P 1E4","YONGE ST","2300 YONGE ST,TORONTO, ON,M4P 1E4",43.7077702,-79.3991984,30,1,0.5,26,0.656856507994235
"239","RETAIL STORE (FOOD)","NISHITA FARM FRESH","TORONTO, ON","M4C 1M6","DANFORTH AVE","2988 DANFORTH AVE,TORONTO, ON,M4C 1M6",43.6905879,-79.2917073,30,1,0.5,33,0.792670100885344
"240","RETAIL STORE (FOOD)","A&W EXPRESS/COUNTRY STYLE","TORONTO, ON","M4W 3G7","BLOOR ST E","20 BLOOR ST E,TORONTO, ON,M4W 3G7",43.6709328,-79.3845937,30,1,0.5,28,2.968574963342
"241","RETAIL STORE (FOOD)","COBS BREAD","TORONTO, ON","M4K 1N1","DANFORTH AVE","156 DANFORTH AVE,TORONTO, ON,M4K 1N1",43.6766515425532,-79.357207912766,30,1,0.5,27,0.674966817721725
"242","RETAIL STORE (FOOD)","GALAXY FRESH FOODMART","TORONTO, ON","M4M 1Y2","GERRARD ST E","587-591 GERRARD ST E,TORONTO, ON,M4M 1Y2",43.6660093,-79.3500641,30,1,0.5,20,0.75777982408529
"243","RETAIL STORE (FOOD)","DANFORTH VARIETY","TORONTO, ON","M4J 1M3","DANFORTH AVE","1166 DANFORTH AVE,TORONTO, ON,M4J 1M3",43.6814614833333,-79.3330911333333,30,1,0.5,37,0.833354682619584
"244","RETAIL STORE (FOOD)","DOLLARAMA #1035","TORONTO, ON","M4M 1H4","QUEEN ST E","772 QUEEN ST E,TORONTO, ON,M4M 1H4",43.6595562,-79.3474351,30,1,0.5,27,0.116226792033006
"245","RETAIL STORE (FOOD)","KIN-KIN","TORONTO, ON","M4M 3G6","GERRARD ST E","1000 GERRARD ST E,TORONTO, ON,M4M 3G6",43.66930005,-79.3398612737603,30,1,0.5,33,0.562024262268096
"246","RETAIL STORE (FOOD)","TERIYAKI EXPERIENCE","TORONTO, ON","M4W 3E2","BLOOR ST W","2 BLOOR ST W,TORONTO, ON,M4W 3E2",43.67047035,-79.387252326513,30,1,0.5,40,0.00251210684020837
"247","RETAIL STORE (FOOD)","THE BAGEL HOUSE EXPRESS","TORONTO, ON","M4P 2J3","YONGE ST","2572 YONGE ST,TORONTO, ON,M4P 2J3",43.7139708615385,-79.4000779153846,30,1,0.5,33,0.0139053698803063
"248","RETAIL STORE (FOOD)","POPEYE'S SUPPLEMENTS TORONTO MIDTOWN","TORONTO, ON","M4P 2E7","YONGE ST","2419 YONGE ST,TORONTO, ON,M4P 2E7",43.7105466,-79.3989552,30,1,0.5,41,0.929453549864602
"249","RETAIL STORE (FOOD)","DOUBLE D CONVENIENCE","TORONTO, ON","M4K 1N2","DANFORTH AVE","101 DANFORTH AVE,TORONTO, ON,M4K 1N2",43.67619308,-79.3582205133333,30,1,0.5,28,0.246190683480835
"250","RETAIL STORE (FOOD)","BEACH FISH HOUSE","TORONTO, ON","M4L 1H9","QUEEN ST E","1963A QUEEN ST E,TORONTO, ON,M4L 1H9",43.6704762,-79.2980596,30,1,0.5,23,1.0644050091085
"251","RETAIL STORE (FOOD)","T & T SUSHI BAR","TORONTO, ON","M4S 2H3","DUNFIELD AVE","79 DUNFIELD AVE,TORONTO, ON,M4S 2H3",43.706716,-79.395118,30,1,0.5,39,1.2179107022983
"252","RETAIL STORE (FOOD)","BARGAIN BUCKS CONVENIENCE","TORONTO, ON","M4B 2V7","O'CONNOR DR","1553 O'CONNOR DR,TORONTO, ON,M4B 2V7",43.7148088111111,-79.3053351944445,30,1,0.5,23,0.865429588551533
"253","RETAIL STORE (FOOD)","TIM HORTONS #7582","TORONTO, ON","M4R 1K8","EGLINTON AVE W","20 EGLINTON AVE W,TORONTO, ON,M4R 1K8",43.7067091,-79.3996471,30,1,0.5,36,0.798371418337238
"254","RETAIL STORE (FOOD)","BAMBOO LEAVES","TORONTO, ON","M4M 1Y2","GERRARD ST E","649 GERRARD ST E,TORONTO, ON,M4M 1Y2",43.6658316046888,-79.3502423603151,30,1,0.5,31,0.220146529021538
"255","RETAIL STORE (FOOD)","BEST FRESH BUY MARKET","TORONTO, ON","M4P 1Y2","ERSKINE AVE","10 ERSKINE AVE,TORONTO, ON,M4P 1Y2",43.7112427602692,-79.3989299534343,30,1,0.5,44,3.70255883575833
"256","RETAIL STORE (FOOD)","SHOPPER'S DRUG MART","TORONTO, ON","M4K 1N2","DANFORTH AVE","235 DANFORTH AVE,TORONTO, ON,M4K 1N2",43.6767741538462,-79.3551953307692,30,1,0.5,23,0.318990418523465
"257","RETAIL STORE (FOOD)","LOBLAWS","TORONTO, ON","M4P 1H4","EGLINTON AVE E","101 EGLINTON AVE E,TORONTO, ON,M4P 1H4",43.7073661,-79.3944844,30,1,0.5,38,0.122746899258345
"258","RETAIL STORE (FOOD)","PIZZAIOLO","TORONTO, ON","M4K 1N1","DANFORTH AVE","110 DANFORTH AVE,TORONTO, ON,M4K 1N1",43.6764531553191,-79.3582307765957,30,1,0.5,25,0.967475270497199
"259","RETAIL STORE (FOOD)","Y & E POSTAL SERVICE & VARIETY","TORONTO, ON","M4P 1E4","YONGE ST","2300 YONGE ST,TORONTO, ON,M4P 1E4",43.7077702,-79.3991984,30,1,0.5,20,0.442608228884637
"260","RETAIL STORE (FOOD)","ALEX FARM PRODUCTS","TORONTO, ON","M4L 1H9","QUEEN ST E","1965 QUEEN ST E,TORONTO, ON,M4L 1H9",43.66955268,-79.30151954,30,1,0.5,32,1.14875508095593
"261","RETAIL STORE (FOOD)","REXALL PHARMACIES","TORONTO, ON","M4W 3J6","BLOOR ST E","345 BLOOR ST E,TORONTO, ON,M4W 3J6",43.6718025,-79.3784904,30,1,0.5,35,1.41030462450328
"262","RETAIL STORE (FOOD)","REXALL PHARMACIES","TORONTO, ON","M4G 3T6","MOORE AVE","325 MOORE AVE,TORONTO, ON,M4G 3T6",43.6970428,-79.3694432,30,1,0.5,24,0.316473994404078
"263","RETAIL STORE (FOOD)","REXALL PHARMACIES","TORONTO, ON","M4Y 1G7","WELLESLEY ST E","63 WELLESLEY ST E,TORONTO, ON,M4Y 1G7",43.6655689,-79.3811759,30,1,0.5,26,0.326173308771104
"264","RETAIL STORE (FOOD)","REXALL PHARMACIES","TORONTO, ON","M4P 1E4","YONGE ST","2300 YONGE ST,TORONTO, ON,M4P 1E4",43.7077702,-79.3991984,30,1,0.5,33,0.720247096340072
"265","RETAIL STORE (FOOD)","REXALL PHARMACIES","TORONTO, ON","M4N 2M9","YONGE ST","3402 YONGE ST,TORONTO, ON,M4N 2M9",43.7330121,-79.4044708,30,1,0.5,21,1.94879884264412
"266","RETAIL STORE (FOOD)","DOLLARAMA #1088","TORONTO, ON","M4T 2S9","YONGE ST","1560 YONGE ST,TORONTO, ON,M4T 2S9",43.6892417,-79.3947573,30,1,0.5,30,1.51582549690249
"267","RETAIL STORE (FOOD)","THE POP STAND","TORONTO, ON","M4C 1H8","DANFORTH AVE","1686 DANFORTH AVE,TORONTO, ON,M4C 1H8",43.684097,-79.3207517,30,1,0.5,27,1.93350558719578
"268","RETAIL STORE (FOOD)","H-MART","TORONTO, ON","M4Y 2B2","YONGE ST","703 YONGE ST,TORONTO, ON,M4Y 2B2",43.6692366,-79.3861865,30,1,0.5,36,0.376440198626369
"269","RETAIL STORE (FOOD)","OTTWAY HERBALIST","TORONTO, ON","M4K 1N7","DANFORTH AVE","309 DANFORTH AVE,TORONTO, ON,M4K 1N7",43.6770587933333,-79.3537817133333,30,1,0.5,38,0.691635488532484
"270","RETAIL STORE (FOOD)","A TO Z DISCOUNT","TORONTO, ON","M4C 1L1","DANFORTH AVE","2535 DANFORTH AVE,TORONTO, ON,M4C 1L1",43.6879175,-79.3022421428571,30,1,0.5,32,0.95241902764411
"271","RETAIL STORE (FOOD)","DAVISVILLE CARE PHARMACY","TORONTO, ON","M4S 3C4","YONGE ST","1881 YONGE ST,TORONTO, ON,M4S 3C4",43.6976301,-79.3958307,30,1,0.5,28,0.088469196327874
"272","RETAIL STORE (FOOD)","WOODS PHARMACY","TORONTO, ON","M4L 1S7","KINGSTON RD","130 KINGSTON RD,TORONTO, ON,M4L 1S7",43.6706886,-79.3109845,30,1,0.5,29,0.311828056816012
"273","RETAIL STORE (FOOD)","SHOPPERS DRUG MART #943","TORONTO, ON","M4Y 1X4","YONGE ST","465 YONGE ST,TORONTO, ON,M4Y 1X4",43.6615734,-79.3829277,30,1,0.5,24,0.774488137061608
"274","RETAIL STORE (FOOD)","WHOLE FOODS MARKET","TORONTO, ON","M4G 3C6","BAYVIEW AVE","1860 BAYVIEW AVE,TORONTO, ON,M4G 3C6",43.7140497,-79.3779615,30,1,0.5,25,1.15336086604997
"275","RETAIL STORE (FOOD)","BEACHES NATURAL FOODS","TORONTO, ON","M4L 1H7","QUEEN ST E","1947 QUEEN ST E,TORONTO, ON,M4L 1H7",43.6691431428571,-79.3035890285714,30,1,0.5,33,2.06098879492822
"276","RETAIL STORE (FOOD)","KATIES CAKES","TORONTO, ON","M4B 2V7","O'CONNOR DR","1531 O'CONNOR DR,TORONTO, ON,M4B 2V7",43.7143987555556,-79.3056502222222,30,1,0.5,26,1.10365088925897
"277","RETAIL STORE (FOOD)","LOBLAWS SUPERMARKETS - STORE #1142","TORONTO, ON","M4T 1L7","ST CLAIR AVE E","12 ST CLAIR AVE E,TORONTO, ON,M4T 1L7",43.6884879,-79.3938561,30,1,0.5,37,0.181543198423583
"278","RETAIL STORE (FOOD)","JIMMY THE GREEK","TORONTO, ON","M4P 1E4","YONGE ST","2300 YONGE ST,TORONTO, ON,M4P 1E4",43.7077702,-79.3991984,30,1,0.5,21,0.832662092034669
"279","RETAIL STORE (FOOD)","BENTO SUSHI","TORONTO, ON","M4C 1L1","DANFORTH AVE","2451 DANFORTH AVE,TORONTO, ON,M4C 1L1",43.6873839,-79.3047551,30,1,0.5,42,0.310652814567715
"280","RETAIL STORE (FOOD)","HOKI POKE","TORONTO, ON","M4Y 1Z2","YONGE ST","563 YONGE ST,TORONTO, ON,M4Y 1Z2",43.66514025,-79.3845378333333,30,1,0.5,38,0.678302164655179
"281","RETAIL STORE (FOOD)","MOVE FITNESS CLUB","TORONTO, ON","M4M 2T4","CARLAW AVE","388 CARLAW AVE,TORONTO, ON,M4M 2T4",43.6663562,-79.3429711,30,1,0.5,30,0.465741509571671
"282","RETAIL STORE (FOOD)","U-NARU SUSHI MGH","TORONTO, ON","M4C 3E7","COXWELL AVE","825 COXWELL AVE,TORONTO, ON,M4C 3E7",43.69016025,-79.3250179024627,30,1,0.5,20,1.17750599483399
"283","RETAIL STORE (FOOD)","NUTRITION VILLAGE","TORONTO, ON","M4P 1E4","YONGE ST","2300 YONGE ST,TORONTO, ON,M4P 1E4",43.7077702,-79.3991984,30,1,0.5,41,2.73034459988067
"284","RETAIL STORE (FOOD)","CONVENIENCE CANADA","TORONTO, ON","M6K 1M4","QUEEN ST W","1486 QUEEN ST W,TORONTO, ON,M6K 1M4",43.64075295,-79.437582944861,30,1,0.5,23,0.33679696591571
"285","RETAIL STORE (FOOD)","CUMBRAES QUEEN STREET","TORONTO, ON","M4G 3B5","BAYVIEW AVE","1589 BAYVIEW AVE,TORONTO, ON,M4G 3B5",43.706049,-79.3750302,30,1,0.5,32,0.215174364391714
"286","RETAIL STORE (FOOD)","M BIRYANI HOUSE","TORONTO, ON","M4W 3E2","BLOOR ST W","2 BLOOR ST W,TORONTO, ON,M4W 3E2",43.67047035,-79.387252326513,30,1,0.5,29,1.05227892003478
"287","RETAIL STORE (FOOD)","MILLWOOD WINE WORKS","TORONTO, ON","M4G 1X2","MILLWOOD RD","905 MILLWOOD RD,TORONTO, ON,M4G 1X2",43.7032327828577,-79.3639327266237,30,1,0.5,31,0.730472982819092
"288","RETAIL STORE (FOOD)","DOLLARAMA #1146","TORONTO, ON","M4N 2L8","YONGE ST","3289 YONGE ST,TORONTO, ON,M4N 2L8",43.7299887,-79.4032823,30,1,0.5,35,0.946831298950029
"289","RETAIL STORE (FOOD)","TUNG HING CAFE & SWEETS","TORONTO, ON","M4M 2H1","BROADVIEW AVE","353 BROADVIEW AVE,TORONTO, ON,M4M 2H1",43.6651674,-79.3523393,30,1,0.5,36,2.11935035787758
"290","RETAIL STORE (FOOD)","CALIFORNIA THAI","TORONTO, ON","M4P 1E4","YONGE ST","2300 YONGE ST,TORONTO, ON,M4P 1E4",43.7077702,-79.3991984,30,1,0.5,33,0.431628834921867
"291","RETAIL STORE (FOOD)","BEACHES N'CREAM","TORONTO, ON","M4L 1J1","QUEEN ST E","2075 QUEEN ST E,TORONTO, ON,M4L 1J1",43.6704762,-79.2980596,30,1,0.5,33,0.910012416218935
"292","RETAIL STORE (FOOD)","GEORGE'S INDEPENDENT CITY MARKET","TORONTO, ON","M4N 3N1","YONGE ST","3080 YONGE ST,TORONTO, ON,M4N 3N1",43.7256028,-79.4025228,30,1,0.5,28,2.50625493551109
"293","RETAIL STORE (FOOD)","LONCH SUSHI","TORONTO, ON","M4M 3G6","GERRARD ST E","1000 GERRARD ST E,TORONTO, ON,M4M 3G6",43.66930005,-79.3398612737603,30,1,0.5,31,1.58614868848565
"294","RETAIL STORE (FOOD)","DOMINO'S PIZZA","TORONTO, ON","M4J 1L8","DANFORTH AVE","873 DANFORTH AVE,TORONTO, ON,M4J 1L8",43.67986308,-79.3394702,30,1,0.5,35,1.83613073444905
"295","RETAIL STORE (FOOD)","TIM HORTON'S","TORONTO, ON","M4N 3N1","YONGE ST","3080 YONGE ST,TORONTO, ON,M4N 3N1",43.7256028,-79.4025228,30,1,0.5,30,0.268538984004408
"296","RETAIL STORE (FOOD)","NEW MANOR CONVENIENCE","TORONTO, ON","M4S 2M5","MOUNT PLEASANT RD","621 MOUNT PLEASANT RD,TORONTO, ON,M4S 2M5",43.704198,-79.388389,30,1,0.5,21,0.625658698379993
"297","RETAIL STORE (FOOD)","SOUVLIKE R","TORONTO, ON","M4K 3S7","PAPE AVE","708 PAPE AVE,TORONTO, ON,M4K 3S7",43.6795161,-79.3452684428571,30,1,0.5,41,0.279350175987929
"298","RETAIL STORE (FOOD)","GERRARD ST. BAKERY","TORONTO, ON","M4M 1Y2","GERRARD ST E","635 GERRARD ST E,TORONTO, ON,M4M 1Y2",43.6657427,-79.3506438,30,1,0.5,35,2.4703259697932
"299","RETAIL STORE (FOOD)","MEDSEXPERT PHARMACY","TORONTO, ON","M4Y 2C5","CHURCH ST","461 CHURCH ST,TORONTO, ON,M4Y 2C5",43.6642319,-79.3802021,30,1,0.5,29,0.368098229169846
"300","RETAIL STORE (FOOD)","ROWE FARM RETAIL","TORONTO, ON","M4E 1E2","QUEEN ST E","2120 QUEEN ST E,TORONTO, ON,M4E 1E2",43.6713053,-79.2946463,30,1,0.5,37,0.0622109659016132
"301","RETAIL STORE (FOOD)","MOUNT PLEASANT PHARMACY","TORONTO, ON","M4P 3B7","EGLINTON AVE E","245 EGLINTON AVE E,TORONTO, ON,M4P 3B7",43.708352,-79.389413,30,1,0.5,29,3.4332899598587
"302","RETAIL STORE (FOOD)","SOUTH BAYVIEW VALU-MART","TORONTO, ON","M4G 3B4","BAYVIEW AVE","1500 BAYVIEW AVE,TORONTO, ON,M4G 3B4",43.7035523,-79.37470495886,30,1,0.5,28,1.66762063643875
"303","RETAIL STORE (FOOD)","ZIGZAG CONVENIENCE","TORONTO, ON","M4J 1M6","DANFORTH AVE","1194 DANFORTH AVE,TORONTO, ON,M4J 1M6",43.68166703,-79.33211602,30,1,0.5,36,0.441296767979222
"304","RETAIL STORE (FOOD)","M&M FOOD MARKET","TORONTO, ON","M4C 1M9","DANFORTH AVE","3003 DANFORTH AVE,TORONTO, ON,M4C 1M9",43.689662,-79.2890060790984,30,1,0.5,31,2.175119722136
"305","RETAIL STORE (FOOD)","MARY'S BRIGADEIRO","TORONTO, ON","M4C 1J4","DANFORTH AVE","1912 DANFORTH AVE,TORONTO, ON,M4C 1J4",43.6850403625,-79.3164316625,30,1,0.5,34,2.57337805429909
"306","RETAIL STORE (FOOD)","BENTO SUSHI","TORONTO, ON","M4N 3N1","YONGE ST","3080 YONGE ST,TORONTO, ON,M4N 3N1",43.7256028,-79.4025228,30,1,0.5,33,0.426079239230603
"307","RETAIL STORE (FOOD)","COOKERY","TORONTO, ON","M4P 2J3","YONGE ST","2588 YONGE ST,TORONTO, ON,M4P 2J3",43.71434,-79.400184,30,1,0.5,36,0.689677868969738
"308","RETAIL STORE (FOOD)","LA DIPERIE QUEEN STREET EAST","TORONTO, ON","M4E 1E6","QUEEN ST E","2196 QUEEN ST E,TORONTO, ON,M4E 1E6",43.6722472,-79.2901338,30,1,0.5,22,0.0590445240959525
"309","RETAIL STORE (FOOD)","T & T SUSHI BAR","TORONTO, ON","M4T 1L7","ST CLAIR AVE E","12 ST CLAIR AVE E,TORONTO, ON,M4T 1L7",43.6884879,-79.3938561,30,1,0.5,35,0.0999762971115305
"310","RETAIL STORE (FOOD)","RABBA FINE FOODS","TORONTO, ON","M4Y 1M7","ISABELLA ST","9 ISABELLA ST,TORONTO, ON,M4Y 1M7",43.6675189,-79.3850163,30,1,0.5,29,1.02863057512314
"311","RETAIL STORE (FOOD)","PAPA JOHN'S","TORONTO, ON","M4B 2T8","O'CONNOR DR","1400 O'CONNOR DR,TORONTO, ON,M4B 2T8",43.712842,-79.3075535,30,1,0.5,28,0.962251601698709
"312","RETAIL STORE (FOOD)","STEADY'S","TORONTO, ON","M4K 3T6","PAPE AVE","852 PAPE AVE,TORONTO, ON,M4K 3T6",43.6838637,-79.3469027,30,1,0.5,25,1.54739154173789
"313","RETAIL STORE (FOOD)","NATURE'S SIGNATURE","TORONTO, ON","M4C 1M9","DANFORTH AVE","3003 DANFORTH AVE,TORONTO, ON,M4C 1M9",43.689662,-79.2890060790984,30,1,0.5,21,0.974003979894233
"314","RETAIL STORE (FOOD)","JOE'S NO FRILLS","TORONTO, ON","M4W 3J6","BLOOR ST E","345 BLOOR ST E,TORONTO, ON,M4W 3J6",43.6718025,-79.3784904,30,1,0.5,28,1.8363617247993
"315","RETAIL STORE (FOOD)","WELLESLEY CONVENIENCE","TORONTO, ON","M4Y 1H2","WELLESLEY ST E","74 WELLESLEY ST E,TORONTO, ON,M4Y 1H2",43.6658812306926,-79.3805997588604,30,1,0.5,30,0.886406900319171
"316","RETAIL STORE (FOOD)","TIM HORTONS/JOHNNY CATCH","TORONTO, ON","M4L 3W6","LAKE SHORE BLVD E","1681 LAKE SHORE BLVD E,TORONTO, ON,M4L 3W6",43.6627122,-79.3099098,30,1,0.5,43,0.692254495341331
"317","RETAIL STORE (FOOD)","BOOSTER JUICE","TORONTO, ON","M4W 1A8","BLOOR ST E","2 BLOOR ST E,TORONTO, ON,M4W 1A8",43.6707855,-79.3856867,30,1,0.5,30,1.45812770343366
"318","RETAIL STORE (FOOD)","PARAGON CONVENIENCE","TORONTO, ON","M4S 2C6","YONGE ST","2200 YONGE ST,TORONTO, ON,M4S 2C6",43.7058479,-79.3983514,30,1,0.5,24,0.082084037104464
"319","RETAIL STORE (FOOD)","KERA FRESH MEAT","TORONTO, ON","M4C 1L8","DANFORTH AVE","2749 DANFORTH AVE,TORONTO, ON,M4C 1L8",43.68903835625,-79.297270725,30,1,0.5,31,0.0339873284101486
"320","RETAIL STORE (FOOD)","YAO HUA SUPERMARKET","TORONTO, ON","M4M 1Y2","GERRARD ST E","639-645 GERRARD ST E,TORONTO, ON,M4M 1Y2",43.6660093,-79.3500641,30,1,0.5,25,1.32001521179802
"321","RETAIL STORE (FOOD)","ARYA BAKERY & SWEET","TORONTO, ON","M4C 1L7","DANFORTH AVE","2622 DANFORTH AVE,TORONTO, ON,M4C 1L7",43.688616584,-79.300369372,30,1,0.5,28,0.313125676941127
"322","RETAIL STORE (FOOD)","T & T SUSHI BAR","TORONTO, ON","M4M 3H9","LESLIE ST","17 LESLIE ST,TORONTO, ON,M4M 3H9",43.6608477,-79.3289747,30,1,0.5,27,0.870579858268511
"323","RETAIL STORE (FOOD)","BENTO SUSHI","TORONTO, ON","M4H 1P6","REDWAY RD","11 REDWAY RD,TORONTO, ON,M4H 1P6",43.69923705,-79.359679679141,30,1,0.5,28,1.39993061861935
"324","RETAIL STORE (FOOD)","BENTO SUSHI","TORONTO, ON","M4P 1E4","YONGE ST","2300 YONGE ST,TORONTO, ON,M4P 1E4",43.7077702,-79.3991984,30,1,0.5,24,0.178980657365173
"325","RETAIL STORE (FOOD)","CHATIME","TORONTO, ON","M4P 2E6","YONGE ST","2354 YONGE ST,TORONTO, ON,M4P 2E6",43.7385493207335,-79.4023977561074,30,1,0.5,29,0.000655813892957814
"326","RETAIL STORE (FOOD)","MR SOUVLAKI","TORONTO, ON","M4W 1A8","BLOOR ST E","2 BLOOR ST E,TORONTO, ON,M4W 1A8",43.6707855,-79.3856867,30,1,0.5,25,0.019337241537869
"327","RETAIL STORE (FOOD)","BENTO SUSHI","TORONTO, ON","M4V 1N5","ST CLAIR AVE W","111 ST CLAIR AVE W,TORONTO, ON,M4V 1N5",43.6865728,-79.3994296070968,30,1,0.5,33,0.416824136860669
"328","RETAIL STORE (FOOD)","ELLIOTT'S CIGAR","TORONTO, ON","M4C 1M1","DANFORTH AVE","2790 DANFORTH AVE,TORONTO, ON,M4C 1M1",43.6895199818182,-79.2963532727273,30,1,0.5,30,1.59351756462379
"329","RETAIL STORE (FOOD)","SHOPPERS DRUG MART STORE #1408","TORONTO, ON","M4W 1A5","BLOOR ST W","55 BLOOR ST W,TORONTO, ON,M4W 1A5",43.6696176,-79.3887161,30,1,0.5,32,0.138804419391881
"330","RETAIL STORE (FOOD)","RAISE THE ROOT ORGANIC MARKET","TORONTO, ON","M4M 1L4","QUEEN ST E","1164 QUEEN ST E,TORONTO, ON,M4M 1L4",43.6628703,-79.33252404,30,1,0.5,31,0.637818022165447
"331","RETAIL STORE (FOOD)","CARLOAD ON THE BEACH","TORONTO, ON","M4E 1C9","QUEEN ST E","2054 QUEEN ST E,TORONTO, ON,M4E 1C9",43.6706924,-79.2974817,30,1,0.5,32,0.997019415679288
"332","RETAIL STORE (FOOD)","401 GAMES, TOYS, SPORTSCARDS","TORONTO, ON","M4Y 2B6","YONGE ST","750 YONGE ST,TORONTO, ON,M4Y 2B6",43.6692477,-79.3865299,30,1,0.5,38,0.77232750744351
"333","RETAIL STORE (FOOD)","NUTRITION HOUSE","TORONTO, ON","M4W 1A8","BLOOR ST E","2 BLOOR ST E,TORONTO, ON,M4W 1A8",43.6707855,-79.3856867,30,1,0.5,27,0.230738989077508
"334","RETAIL STORE (FOOD)","ALEX FARM PRODUCTS","TORONTO, ON","M4G 3B7","BAYVIEW AVE","1578 BAYVIEW AVE,TORONTO, ON,M4G 3B7",43.7055368025,-79.37528717,30,1,0.5,26,1.92874068758431
"335","RETAIL STORE (FOOD)","BAY CONVENIENCE","TORONTO, ON","M4W 1A5","BLOOR ST W","55 BLOOR ST W,TORONTO, ON,M4W 1A5",43.6696176,-79.3887161,30,1,0.5,36,0.153493390418589
"336","RETAIL STORE (FOOD)","JELLY BEAN","TORONTO, ON","M4N 2M4","YONGE ST","3336 YONGE ST,TORONTO, ON,M4N 2M4",43.7315212333333,-79.4040533666667,30,1,0.5,29,0.975500996182573
"337","RETAIL STORE (FOOD)","BURRITO BANDIDOS","TORONTO, ON","M4L 1G3","QUEEN ST E","1614A QUEEN ST E,TORONTO, ON,M4L 1G3",43.6665519,-79.3156351,30,1,0.5,34,0.219470283673109
"338","RETAIL STORE (FOOD)","TUTTO PRONTO BAYVIEW","TORONTO, ON","M4G 3B5","BAYVIEW AVE","1551 BAYVIEW AVE,TORONTO, ON,M4G 3B5",43.7052851869001,-79.3748122093737,30,1,0.5,38,1.00838998163484
"339","RETAIL STORE (FOOD)","FAMILY STOP DOLLAR BLITZ","TORONTO, ON","M4K 3W3","PAPE AVE","1053 PAPE AVE,TORONTO, ON,M4K 3W3",43.6901628,-79.3489424,30,1,0.5,28,3.1535985766161
"340","RETAIL STORE (FOOD)","AGA VARIETY","TORONTO, ON","M4C 1J9","DANFORTH AVE","2090 DANFORTH AVE,TORONTO, ON,M4C 1J9",43.6859154,-79.3123644857143,30,1,0.5,35,0.617325946222991
"341","RETAIL STORE (FOOD)","CRAIG'S COOKIES","TORONTO, ON","M4Y 2C6","CHURCH ST","483 CHURCH ST,TORONTO, ON,M4Y 2C6",43.6650055,-79.380528,30,1,0.5,24,0.270884425379336
"342","RETAIL STORE (FOOD)","STRICTLY BULK THE BULK FOOD EMPORIUM","TORONTO, ON","M4K 1R3","DANFORTH AVE","638 DANFORTH AVE,TORONTO, ON,M4K 1R3",43.6789785,-79.3453522363636,30,1,0.5,26,0.631175384856761
"343","RETAIL STORE (FOOD)","MINI VARIETY","TORONTO, ON","M4C 1M9","DANFORTH AVE","3003 DANFORTH AVE,TORONTO, ON,M4C 1M9",43.689662,-79.2890060790984,30,1,0.5,22,2.96630340052729
"344","RETAIL STORE (FOOD)","808 SOCIAL","TORONTO, ON","M4K 3S7","PAPE AVE","808 PAPE AVE,TORONTO, ON,M4K 3S7",43.6822094,-79.3462573,30,1,0.5,26,0.5167449968867
"345","RETAIL STORE (FOOD)","TASSO BAKING","TORONTO, ON","M4X 1P6","PARLIAMENT ST","540 PARLIAMENT ST,TORONTO, ON,M4X 1P6",43.6665679,-79.3690652,30,1,0.5,32,0.466895820107311
"346","RETAIL STORE (FOOD)","INS MARKET","TORONTO, ON","M4W 1A8","BLOOR ST E","2 BLOOR ST E,TORONTO, ON,M4W 1A8",43.6707855,-79.3856867,30,1,0.5,29,0.797154102087186
"347","RETAIL STORE (FOOD)","THE REDWOOD THEATRE","TORONTO, ON","M4L 1Y7","GERRARD ST E","1300 GERRARD ST E,TORONTO, ON,M4L 1Y7",43.671231,-79.3271444,30,1,0.5,41,0.0930612587419423
"348","RETAIL STORE (FOOD)","CANADIAN OUTLET","TORONTO, ON","M4T 1Y7","YONGE ST","1417 YONGE ST,TORONTO, ON,M4T 1Y7",43.6875776666667,-79.3937674166667,30,1,0.5,27,0.690638314001262
"349","RETAIL STORE (FOOD)","LITTLE CAESARS","TORONTO, ON","M4K 3H9","CARLAW AVE","457 CARLAW AVE,TORONTO, ON,M4K 3H9",43.6675561,-79.3427092,30,1,0.5,28,0.0225723362527788
"350","RETAIL STORE (FOOD)","MR.GOODYS","TORONTO, ON","M4H 1C3","OVERLEA BLVD","45 OVERLEA BLVD,TORONTO, ON,M4H 1C3",43.7061606,-79.3451616,30,1,0.5,36,0.077886235434562
"351","RETAIL STORE (FOOD)","TIM HORTONS","TORONTO, ON","M4C 1M9","DANFORTH AVE","3003 DANFORTH AVE,TORONTO, ON,M4C 1M9",43.689662,-79.2890060790984,30,1,0.5,26,2.33361294666741
"352","RETAIL STORE (FOOD)","DEER PARK PHARMACY","TORONTO, ON","M4V 2Y7","ST CLAIR AVE W","55 ST CLAIR AVE W,TORONTO, ON,M4V 2Y7",43.6871952,-79.3967831,30,1,0.5,34,0.131128420823647
"353","RETAIL STORE (FOOD)","REAL BARGAIN","TORONTO, ON","M4C 1L1","DANFORTH AVE","2505 DANFORTH AVE,TORONTO, ON,M4C 1L1",43.6877955,-79.3028615,30,1,0.5,36,0.699982764775636
"354","RETAIL STORE (FOOD)","BZB CONVENIENCE","TORONTO, ON","M4Y 1Y5","YONGE ST","527 YONGE ST,TORONTO, ON,M4Y 1Y5",43.664053,-79.384081,30,1,0.5,24,0.208224266065668
"355","RETAIL STORE (FOOD)","LAURA SECORD","TORONTO, ON","M4P 1E4","YONGE ST","2300 YONGE ST,TORONTO, ON,M4P 1E4",43.7077702,-79.3991984,30,1,0.5,29,1.38066676161708
"356","RETAIL STORE (FOOD)","LAURA SECORD","TORONTO, ON","M4W 3L8","BLOOR ST W","50 BLOOR ST W,TORONTO, ON,M4W 3L8",43.6701518,-79.3882988,30,1,0.5,26,0.646812093444169
"357","RETAIL STORE (FOOD)","APEX COMPOUNDING PHARMACY","TORONTO, ON","M4P 2Y3","EGLINTON AVE E","90 EGLINTON AVE E,TORONTO, ON,M4P 2Y3",43.7075863,-79.3957828,30,1,0.5,30,0.34158653113991
"358","RETAIL STORE (FOOD)","PRESSE INTERNATIONALE","TORONTO, ON","M4E 1C9","QUEEN ST E","2068 QUEEN ST E,TORONTO, ON,M4E 1C9",43.6707794615385,-79.2971451615385,30,1,0.5,28,1.11322348095001
"359","RETAIL STORE (FOOD)","BARE MARKET","TORONTO, ON","M4J 1N4","DANFORTH AVE","1480 DANFORTH AVE,TORONTO, ON,M4J 1N4",43.6829967071429,-79.3258709785714,30,1,0.5,26,0.0790097201957319
"360","RETAIL STORE (FOOD)","BEAUTY BARGAIN AND VARIETY STORE","TORONTO, ON","M4C 1L8","DANFORTH AVE","2763 DANFORTH AVE,TORONTO, ON,M4C 1L8",43.6891228,-79.2969686,30,1,0.5,30,0.287907308433205
"361","RETAIL STORE (FOOD)","ACAI CONCEPT STORE","TORONTO, ON","M4S 2A2","YONGE ST","2039 YONGE ST,TORONTO, ON,M4S 2A2",43.701696,-79.39719,30,1,0.5,32,0.07761217733263
"362","RETAIL STORE (FOOD)","SUSHI REAL FRUIT","TORONTO, ON","M4B 2T8","O'CONNOR DR","1500 O'CONNOR DR,TORONTO, ON,M4B 2T8",43.7137549666667,-79.3065765333333,30,1,0.5,29,1.97336111209335
"363","RETAIL STORE (FOOD)","DANFORTH MILK STORE","TORONTO, ON","M4J 1L8","DANFORTH AVE","939 DANFORTH AVE,TORONTO, ON,M4J 1L8",43.680152,-79.3379295,30,1,0.5,31,0.109694292966186
"364","RETAIL STORE (FOOD)","FRESH 1 MARKET","TORONTO, ON","M4C 1J4","DANFORTH AVE","1942 DANFORTH AVE,TORONTO, ON,M4C 1J4",43.68517248,-79.3157745,30,1,0.5,27,0.940678477245283
"365","RETAIL STORE (FOOD)","THE GREAT CANADIAN BAGEL","TORONTO, ON","M4S 2C6","YONGE ST","2200 YONGE ST,TORONTO, ON,M4S 2C6",43.7058479,-79.3983514,30,1,0.5,23,0.1208788961361
"366","RETAIL STORE (FOOD)","LESLIEVILLE PUMPS GENERAL STORE & KITCHEN","TORONTO, ON","M4M 1J4","QUEEN ST E","913 QUEEN ST E,TORONTO, ON,M4M 1J4",43.6606505,-79.3414508,30,1,0.5,27,2.15361143822286
"367","RETAIL STORE (FOOD)","CARLOAD ON YONGE","TORONTO, ON","M4P 2H6","YONGE ST","2503 YONGE ST,TORONTO, ON,M4P 2H6",43.7121074125,-79.399320625,30,1,0.5,30,1.01038092836262
"368","RETAIL STORE (FOOD)","EAT CANTEEN","TORONTO, ON","M4P 1E4","YONGE ST","2300 YONGE ST,TORONTO, ON,M4P 1E4",43.7077702,-79.3991984,30,1,0.5,21,3.5463479563403
"369","RETAIL STORE (FOOD)","MR. TOBACCONIST","TORONTO, ON","M4Y 2C5","CHURCH ST","473 CHURCH ST,TORONTO, ON,M4Y 2C5",43.6645185,-79.3803224,30,1,0.5,34,0.24054766073823
"370","RETAIL STORE (FOOD)","SWISS CHALET","TORONTO, ON","M4K 3H9","CARLAW AVE","461 CARLAW AVE,TORONTO, ON,M4K 3H9",43.6675561,-79.3427092,30,1,0.5,24,0.376657420806189
"371","RETAIL STORE (FOOD)","M&M FOOD MARKET","TORONTO, ON","M4N 2N3","YONGE ST","3467 YONGE ST,TORONTO, ON,M4N 2N3",43.7341092363636,-79.4043133272727,30,1,0.5,30,0.724939088025927
"372","RETAIL STORE (FOOD)","CRAIG'S COOKIES","TORONTO, ON","M4G 3B5","BAYVIEW AVE","1581 BAYVIEW AVE,TORONTO, ON,M4G 3B5",43.7059022,-79.3750176,30,1,0.5,27,0.0987616619095206
"373","RETAIL STORE (FOOD)","TIM HORTONS","TORONTO, ON","M4K 1N2","DANFORTH AVE","91 DANFORTH AVE,TORONTO, ON,M4K 1N2",43.6766828,-79.3564147,30,1,0.5,30,0.606861573643982
"374","RETAIL STORE (FOOD)","JACLYN'S","TORONTO, ON","M4L 1G1","QUEEN ST E","1588 QUEEN ST E,TORONTO, ON,M4L 1G1",43.6661138,-79.3180081,30,1,0.5,34,0.385121714323759
"375","RETAIL STORE (FOOD)","JEFF'S NO FRILLS","TORONTO, ON","M4K 3H9","CARLAW AVE","449 CARLAW AVE,TORONTO, ON,M4K 3H9",43.6684636,-79.3424151,30,1,0.5,30,1.39745655647459
"376","RETAIL STORE (FOOD)","SIMPLE COFFEE","TORONTO, ON","M4L 1G3","QUEEN ST E","1636 QUEEN ST E,TORONTO, ON,M4L 1G3",43.66674420625,-79.3154068625,30,1,0.5,38,0.365483924746513
"377","RETAIL STORE (FOOD)","DONLANDS GARDEN CHINESE RESTAURANT","TORONTO, ON","M4J 3S1","DONLANDS AVE","348 DONLANDS AVE,TORONTO, ON,M4J 3S1",43.6931880571429,-79.3426988285714,30,1,0.5,25,0.0315025538367705
"378","RETAIL STORE (FOOD)","FAIR CATCH FISHMONGERS","TORONTO, ON","M4N 2L8","YONGE ST","3303 YONGE ST,TORONTO, ON,M4N 2L8",43.7304298,-79.4034013,30,1,0.5,39,0.948758764100243
"379","RETAIL STORE (FOOD)","YONGE FRESH MARKET","TORONTO, ON","M4P 3B7","EGLINTON AVE E","245 EGLINTON AVE E,TORONTO, ON,M4P 3B7",43.708352,-79.389413,30,1,0.5,24,1.27326158988745
"380","RETAIL STORE (FOOD)","PIZZA HUT","TORONTO, ON","M4J 1L7","DANFORTH AVE","844 DANFORTH AVE,TORONTO, ON,M4J 1L7",43.679952,-79.3404211,30,1,0.5,24,3.68419489802277
"381","RETAIL STORE (FOOD)","DANFORTH CONVENIENCE STORE","TORONTO, ON","M4K 1N7","DANFORTH AVE","323 DANFORTH AVE,TORONTO, ON,M4K 1N7",43.6771105466667,-79.3535228066667,30,1,0.5,35,0.924861067864013
"382","RETAIL STORE (FOOD)","CRAIG'S COOKIES","TORONTO, ON","M4M 1J5","QUEEN ST E","908 QUEEN ST E,TORONTO, ON,M4M 1J5",43.6607009,-79.3423138,30,1,0.5,26,1.4421183335686
"383","RETAIL STORE (FOOD)","SWEETCULTURA","TORONTO, ON","M4P 3B7","EGLINTON AVE E","245 EGLINTON AVE E,TORONTO, ON,M4P 3B7",43.708352,-79.389413,30,1,0.5,27,3.34553623927717
"384","RETAIL STORE (FOOD)","PALGONGTEA CANADA","TORONTO, ON","M4W 1A9","BLOOR ST E","53 BLOOR ST E,TORONTO, ON,M4W 1A9",43.670441,-79.385345,30,1,0.5,35,1.37821346889706
"385","RETAIL STORE (FOOD)","EGG CLUB","TORONTO, ON","M4Y 1Y5","YONGE ST","531 YONGE ST,TORONTO, ON,M4Y 1Y5",43.6641482,-79.3840551,30,1,0.5,22,0.622465099673718
"386","RETAIL STORE (FOOD)","PATISSERIE JULES","TORONTO, ON","M4S 2M5","MOUNT PLEASANT RD","617 MOUNT PLEASANT RD,TORONTO, ON,M4S 2M5",43.70413768,-79.38836436,30,1,0.5,29,0.252286492464138
"387","RETAIL STORE (FOOD)","STOP VARIETY","TORONTO, ON","M4J 1L1","DANFORTH AVE","690 DANFORTH AVE,TORONTO, ON,M4J 1L1",43.6792831997978,-79.3438185600931,30,1,0.5,26,0.12703539384529
"388","RETAIL STORE (FOOD)","GREENWIN SQUARE LOTTERY CENTRE","TORONTO, ON","M4W 3J6","BLOOR ST E","345 BLOOR ST E,TORONTO, ON,M4W 3J6",43.6718025,-79.3784904,30,1,0.5,35,1.72845528638902
"389","RETAIL STORE (FOOD)","THE NIGHT BAKER","TORONTO, ON","M4K 1P1","DANFORTH AVE","405 DANFORTH AVE,TORONTO, ON,M4K 1P1",43.6775311888889,-79.3513570111111,30,1,0.5,36,0.905763678210688
"390","RETAIL STORE (FOOD)","BOOSTER JUICE","TORONTO, ON","M4T 1L7","ST CLAIR AVE E","12 ST CLAIR AVE E,TORONTO, ON,M4T 1L7",43.6884879,-79.3938561,30,1,0.5,19,0.95780257098566
"391","RETAIL STORE (FOOD)","LA DIPERIE","TORONTO, ON","M4G 3B5","BAYVIEW AVE","1559 BAYVIEW AVE,TORONTO, ON,M4G 3B5",43.7054912,-79.3748619,30,1,0.5,28,0.266897341942489
"392","RETAIL STORE (FOOD)","YARL'S SUPER STORE","TORONTO, ON","M4X 1P9","PARLIAMENT ST","607A PARLIAMENT ST,TORONTO, ON,M4X 1P9",43.6699107,-79.3702482,30,1,0.5,22,0.0771888900256836
"393","RETAIL STORE (FOOD)","SUMMER'S BEST FRUITS & FLOWERS CO","TORONTO, ON","M4G 3B5","BAYVIEW AVE","1573 BAYVIEW AVE,TORONTO, ON,M4G 3B5",43.705675638867,-79.3749633104105,30,1,0.5,27,0.924366255739907
"394","RETAIL STORE (FOOD)","VLAD BAKERY & PASTRY","TORONTO, ON","M4J 1L2","DANFORTH AVE","713 DANFORTH AVE,TORONTO, ON,M4J 1L2",43.6791098,-79.343323,30,1,0.5,27,0.398079669103026
"395","RETAIL STORE (FOOD)","THE SOURCE BULK FOODS LESLIEVILLE","TORONTO, ON","M4M 1J4","QUEEN ST E","901 QUEEN ST E,TORONTO, ON,M4M 1J4",43.6605285307692,-79.3418262153846,30,1,0.5,29,0.552654920611531
"396","RETAIL STORE (FOOD)","YONG XING FRUITS & VEGETABLES","TORONTO, ON","M4M 2G9","BROADVIEW AVE","346 BROADVIEW AVE,TORONTO, ON,M4M 2G9",43.6649334,-79.35257425,30,1,0.5,32,0.354808898176998
"397","RETAIL STORE (FOOD)","THE NUTRITION BAR","TORONTO, ON","M4Y 1M7","ISABELLA ST","5 ISABELLA ST,TORONTO, ON,M4Y 1M7",43.6675344,-79.3853342,30,1,0.5,25,5.1198538408468
"398","RETAIL STORE (FOOD)","POPBLACK COFFEE","TORONTO, ON","M4S 1Z3","YONGE ST","1919A YONGE ST,TORONTO, ON,M4S 1Z3",43.6982394,-79.3965905,30,1,0.5,35,2.37036983469937
"399","RETAIL STORE (FOOD)","AMPERSAND BAKEHOUSE","TORONTO, ON","M4C 1H8","DANFORTH AVE","1808 DANFORTH AVE,TORONTO, ON,M4C 1H8",43.6845783,-79.3185426,30,1,0.5,25,0.70978615894438
"400","RETAIL STORE (FOOD)","KITCHEN FOOD FAIR","TORONTO, ON","M4H 1C3","OVERLEA BLVD","45 OVERLEA BLVD,TORONTO, ON,M4H 1C3",43.7061606,-79.3451616,30,1,0.5,32,3.95285600961602
"401","RETAIL STORE (FOOD)","GROCERY & BARGAIN","TORONTO, ON","M4B 3M1","ST CLAIR AVE E","2650 ST CLAIR AVE E,TORONTO, ON,M4B 3M1",43.7054617,-79.3133278,30,1,0.5,28,0.131622274871916
"402","RETAIL STORE (FOOD)","MARKET CONVENIENCE","TORONTO, ON","M4R 2G8","EGLINTON AVE W","124 EGLINTON AVE W,TORONTO, ON,M4R 2G8",43.705934,-79.402635,30,1,0.5,37,0.124737315811217
"403","RETAIL STORE (FOOD)","TATA HOT SAUCE EMPORIUM","TORONTO, ON","M4B 2N7","REXLEIGH DR","219 REXLEIGH DR,TORONTO, ON,M4B 2N7",43.7064262,-79.3068763,30,1,0.5,18,3.10735459788958
"404","RETAIL STORE (FOOD)","THE CUPCAKE SHOPPE","TORONTO, ON","M4P 2J1","YONGE ST","2587 YONGE ST,TORONTO, ON,M4P 2J1",43.7143651,-79.3997705,30,1,0.5,34,1.08097593119097
"405","RETAIL STORE (FOOD)","ONYX CHOCOLATES","TORONTO, ON","M4M 1Y2","GERRARD ST E","601 GERRARD ST E,TORONTO, ON,M4M 1Y2",43.6655450196813,-79.351536329979,30,1,0.5,35,0.256511837709695
"406","RETAIL STORE (FOOD)","STAPLES CANADA","TORONTO, ON","M4G 4B5","EGLINTON AVE E","945 EGLINTON AVE E,TORONTO, ON,M4G 4B5",43.714358,-79.3582016,30,1,0.5,26,1.79525111979785
"407","RETAIL STORE (FOOD)","STAPLES CANADA","TORONTO, ON","M4C 1M9","DANFORTH AVE","3003 DANFORTH AVE,TORONTO, ON,M4C 1M9",43.689662,-79.2890060790984,30,1,0.5,35,0.499534407630563
"408","RETAIL STORE (FOOD)","STAPLES CANADA","TORONTO, ON","M4M 3G6","GERRARD ST E","1000 GERRARD ST E,TORONTO, ON,M4M 3G6",43.66930005,-79.3398612737603,30,1,0.5,29,0.895002984226466
"409","RETAIL STORE (FOOD)","BULK BARN","TORONTO, ON","M4K 1N2","DANFORTH AVE","213 DANFORTH AVE,TORONTO, ON,M4K 1N2",43.6766738846154,-79.3556999769231,30,1,0.5,27,0.0623430032283068
"410","RETAIL STORE (FOOD)","HIDDEN GEMM VARIETY","TORONTO, ON","M4K 2T3","BROADVIEW AVE","1223 BROADVIEW AVE,TORONTO, ON,M4K 2T3",43.690424,-79.3550517,30,1,0.5,31,0.907598989042354
"411","RETAIL STORE (FOOD)","BAKE CODE CROISSANTERIE","TORONTO, ON","M4Y 1Z8","YONGE ST","626 YONGE ST,TORONTO, ON,M4Y 1Z8",43.6662197,-79.3852389,30,1,0.5,31,1.57875410086455
"412","RETAIL STORE (FOOD)","MASTERMIND TOYS","TORONTO, ON","M4E 1E3","QUEEN ST E","2134 QUEEN ST E,TORONTO, ON,M4E 1E3",43.671478,-79.2939344,30,1,0.5,31,0.175795452203602
"413","RETAIL STORE (FOOD)","MASTERMIND TOYS","TORONTO, ON","M4N 2M7","YONGE ST","3350 YONGE ST,TORONTO, ON,M4N 2M7",43.7319722,-79.4042331,30,1,0.5,27,1.62697626942019
"414","RETAIL STORE (FOOD)","SHOPPERS DRUG MART","TORONTO, ON","M4P 2H6","YONGE ST","279 YONGE ST,TORONTO, ON,M4P 2H6",43.6555741034483,-79.3804548275862,30,1,0.5,34,0.150948814229059
"415","RETAIL STORE (FOOD)","LA DIPERIE (DANFORTH)","TORONTO, ON","M4K 1N8","DANFORTH AVE","372 DANFORTH AVE,TORONTO, ON,M4K 1N8",43.6776293875,-79.3522509375,30,1,0.5,37,0.0934433285731145
"416","RETAIL STORE (FOOD)","SWEET ADDICTIONS","TORONTO, ON","M4X 1K2","SHERBOURNE ST","462 SHERBOURNE ST,TORONTO, ON,M4X 1K2",43.6666888571429,-79.3746797142857,30,1,0.5,25,0.183887791052655
"417","RETAIL STORE (FOOD)","BILL'S FARM","TORONTO, ON","M4H 1C3","OVERLEA BLVD","45 OVERLEA BLVD,TORONTO, ON,M4H 1C3",43.7061606,-79.3451616,30,1,0.5,35,1.22748543131621
"418","RETAIL STORE (FOOD)","MIMI'S CONVENIENCE","TORONTO, ON","M4C 1H8","DANFORTH AVE","1686 DANFORTH AVE,TORONTO, ON,M4C 1H8",43.684097,-79.3207517,30,1,0.5,35,0.913592471699131
"419","RETAIL STORE (FOOD)","MARIGOODS OPERATING AS THE CHOCOLATE MESSENGER","TORONTO, ON","M4G 3C1","BAYVIEW AVE","1645 BAYVIEW AVE,TORONTO, ON,M4G 3C1",43.7071958,-79.3755087,30,1,0.5,29,0.804314820053888
"420","RETAIL STORE (FOOD)","DOLLARAMA","TORONTO, ON","M4K 3H9","CARLAW AVE","449 CARLAW AVE,TORONTO, ON,M4K 3H9",43.6684636,-79.3424151,30,1,0.5,26,1.06517921292423
"421","RETAIL STORE (FOOD)","KUNG FU TEA","TORONTO, ON","M4K 1N7","DANFORTH AVE","315 DANFORTH AVE,TORONTO, ON,M4K 1N7",43.6770809733333,-79.3536707533333,30,1,0.5,27,0.240588824264705
"422","RETAIL STORE (FOOD)","SHOPPERS DRUG MART#862","TORONTO, ON","M4C 1M9","DANFORTH AVE","3003 DANFORTH AVE,TORONTO, ON,M4C 1M9",43.689662,-79.2890060790984,30,1,0.5,27,0.087434277869761
"423","RETAIL STORE (FOOD)","PETITE THUET STORE","TORONTO, ON","M4W 2L9","YONGE ST","1162 YONGE ST,TORONTO, ON,M4W 2L9",43.6803059090909,-79.3910698909091,30,1,0.5,33,0.190885704942048
"424","RETAIL STORE (FOOD)","NANIS GELATO","TORONTO, ON","M4Y 1T2","CHARLES ST E","6 CHARLES ST E,TORONTO, ON,M4Y 1T2",43.6688374,-79.385717,30,1,0.5,35,1.70805905937197
"425","RETAIL STORE (FOOD)","SUPERMART","TORONTO, ON","M4G 3B5","BAYVIEW AVE","1633-1635 BAYVIEW AVE,TORONTO, ON,M4G 3B5",43.7057105,-79.3751489,30,1,0.5,30,0.0691966656595469
"426","RETAIL STORE (FOOD)","JEMILA DUBAI COFFEE AND VARIETY","TORONTO, ON","M4C 1M1","DANFORTH AVE","2846 DANFORTH AVE,TORONTO, ON,M4C 1M1",43.68977414,-79.29522206,30,1,0.5,29,1.58792607105317
"427","RETAIL STORE (FOOD)","SAFFRON HALAL MEAT & GROCERY","TORONTO, ON","M4C 1L7","DANFORTH AVE","2640 DANFORTH AVE,TORONTO, ON,M4C 1L7",43.68871364,-79.29993442,30,1,0.5,47,0.057666885277943
"428","RETAIL STORE (FOOD)","HEALTHY PLANET - LEASIDE","TORONTO, ON","M4G 3T7","LAIRD DR","95 LAIRD DR,TORONTO, ON,M4G 3T7",43.70653715,-79.3608166,30,1,0.5,29,0.440948400689194
"429","RETAIL STORE (FOOD)","MUNCHIE WORLD","TORONTO, ON","M4W 3J6","BLOOR ST E","345 BLOOR ST E,TORONTO, ON,M4W 3J6",43.6718025,-79.3784904,30,1,0.5,31,0.637592694256455
"430","RETAIL STORE (FOOD)","STAR FRUIT MARKET","TORONTO, ON","M4X 1P3","PARLIAMENT ST","523 PARLIAMENT ST,TORONTO, ON,M4X 1P3",43.6653961,-79.3682723,30,1,0.5,27,0.277459612116218
"431","RETAIL STORE (FOOD)","CASA MIA DELICATESSEN FINE FOODS","TORONTO, ON","M4L 1J1","QUEEN ST E","1985 QUEEN ST E,TORONTO, ON,M4L 1J1",43.6698247625,-79.30021775,30,1,0.5,27,0.663606877438724
"432","RETAIL STORE (FOOD)","JUST CATERING FOOD SERVICES","TORONTO, ON","M4E 3S2","VICTORIA PARK AVE","127 VICTORIA PARK AVE,TORONTO, ON,M4E 3S2",43.67934495,-79.2821478080905,30,1,0.5,33,0.648711869493127
"433","RETAIL STORE (FOOD)","MR. GREEK MEATS","TORONTO, ON","M4J 1L2","DANFORTH AVE","801 DANFORTH AVE,TORONTO, ON,M4J 1L2",43.6795611294118,-79.3410373235294,30,1,0.5,35,0.669491754379123
"434","RETAIL STORE (FOOD)","THE BEACHES DOLLAR & MORE","TORONTO, ON","M4L 1H6","QUEEN ST E","1948 QUEEN ST E,TORONTO, ON,M4L 1H6",43.6695783928571,-79.30280025,30,1,0.5,23,0.665857086889446
"435","RETAIL STORE (FOOD)","MANGO SUSHI","TORONTO, ON","M4J 1M6","DANFORTH AVE","1272 DANFORTH AVE,TORONTO, ON,M4J 1M6",43.6820186787879,-79.3305477151515,30,1,0.5,29,2.11670728574011
"436","RETAIL STORE (FOOD)","SHOPPERS DRUG MART #984","TORONTO, ON","M4L 1J2","QUEEN ST E","2000 QUEEN ST E,TORONTO, ON,M4L 1J2",43.670161,-79.3002194,30,1,0.5,29,0.379935570855481
"437","RETAIL STORE (FOOD)","BULK BARN","TORONTO, ON","M4G 3T7","LAIRD DR","91 LAIRD DR,TORONTO, ON,M4G 3T7",43.7062136,-79.360494,30,1,0.5,32,1.3882241937423
"438","RETAIL STORE (FOOD)","PIZZA DEPOT","TORONTO, ON","M4E 1E2","QUEEN ST E","2118 QUEEN ST E,TORONTO, ON,M4E 1E2",43.6712825,-79.2947516444444,30,1,0.5,18,1.75997566609623
"439","RETAIL STORE (FOOD)","PINA FOOD","TORONTO, ON","M4E 3E1","MALVERN AVE","2 MALVERN AVE,TORONTO, ON,M4E 3E1",43.6802609,-79.2927729,30,1,0.5,30,1.24571789610655
"440","RETAIL STORE (FOOD)","HASTY MARKET","TORONTO, ON","M4G 3A1","BAYVIEW AVE","1386 BAYVIEW AVE,TORONTO, ON,M4G 3A1",43.7004314,-79.3733495,30,1,0.5,29,0.297275779854642
"441","RETAIL STORE (FOOD)","GOOD GANG ICE CREAM","TORONTO, ON","M4X 1P7","PARLIAMENT ST","540 PARLIAMENT ST,TORONTO, ON,M4X 1P7",43.6665922,-79.3690813,30,1,0.5,36,1.60005836844785
"442","RETAIL STORE (FOOD)","ALOETTE LIBERTY","TORONTO, ON","M4P 2E6","YONGE ST","2362 YONGE ST,TORONTO, ON,M4P 2E6",43.7087951,-79.3991026,30,1,0.5,31,0.140732821659143
"443","RETAIL STORE (FOOD)","KFC - GERRARD SQUARE MALL","TORONTO, ON","M4M 3G6","GERRARD ST E","1000 GERRARD ST E,TORONTO, ON,M4M 3G6",43.66930005,-79.3398612737603,30,1,0.5,31,1.54059240701282
"444","RETAIL STORE (FOOD)","BARCELONA GOURMET","TORONTO, ON","M4J 1L2","DANFORTH AVE","777 DANFORTH AVE,TORONTO, ON,M4J 1L2",43.6794095923077,-79.3418202423077,30,1,0.5,31,0.663005757145584
"445","RETAIL STORE (FOOD)","CHERCHER BUTCHER STORE","TORONTO, ON","M4C 1M1","DANFORTH AVE","2808 DANFORTH AVE,TORONTO, ON,M4C 1M1",43.689595312,-79.296006228,30,1,0.5,29,0.509514391887933
"446","RETAIL STORE (FOOD)","IT'S THE ICING ON THE CAKE","TORONTO, ON","M4L 1C3","QUEEN ST E","1238 QUEEN ST E,TORONTO, ON,M4L 1C3",43.6635915,-79.3299889,30,1,0.5,24,0.0198487263147532
"447","RETAIL STORE (FOOD)","SWEETIE PIE","TORONTO, ON","M4N 2M4","YONGE ST","3308 YONGE ST,TORONTO, ON,M4N 2M4",43.7309949,-79.4039152,30,1,0.5,30,0.899920124518585
"448","RETAIL STORE (FOOD)","DAILY GOODS MARKET","TORONTO, ON","M4J 1N4","DANFORTH AVE","1544 DANFORTH AVE,TORONTO, ON,M4J 1N4",43.68332386,-79.3244153,30,1,0.5,31,0.0227769683115184
"449","RETAIL STORE (FOOD)","SWEETIE PIE","TORONTO, ON","M4G 3B5","BAYVIEW AVE","1639 BAYVIEW AVE,TORONTO, ON,M4G 3B5",43.7068797,-79.3753986,30,1,0.5,35,0.302945361472666
"450","RETAIL STORE (FOOD)","KINGSTON'S CONVENIENCE","TORONTO, ON","M4L 1V3","KINGSTON RD","452 KINGSTON RD,TORONTO, ON,M4L 1V3",43.6771027,-79.3040909,30,1,0.5,25,0.484106012620032
"451","RETAIL STORE (FOOD)","ALL WAY CONVINIENCE STORE","TORONTO, ON","M4M 1J3","QUEEN ST E","900 QUEEN ST E,TORONTO, ON,M4M 1J3",43.6605692,-79.34291392,30,1,0.5,25,0.987233472014678
"452","RETAIL STORE (FOOD)","LOS VIETNAMITA","TORONTO, ON","M4B 3M1","ST CLAIR AVE E","2644 ST CLAIR AVE E,TORONTO, ON,M4B 3M1",43.7053412285714,-79.3134735857143,30,1,0.5,32,2.40905184472415
"453","RETAIL STORE (FOOD)","ONE POUND","TORONTO, ON","M4S 1Z4","YONGE ST","1960 YONGE ST,TORONTO, ON,M4S 1Z4",43.6994287,-79.397091,30,1,0.5,20,0.0594695064378067
"454","RETAIL STORE (FOOD)","ZAZA ESPRESSO BAR AND GELATO","TORONTO, ON","M4P 1E4","YONGE ST","2300 YONGE ST,TORONTO, ON,M4P 1E4",43.7077702,-79.3991984,30,1,0.5,33,0.371180147831377
"455","RETAIL STORE (FOOD)","OMDURMAN HOUSE","TORONTO, ON","M4J 1M6","DANFORTH AVE","1238 DANFORTH AVE,TORONTO, ON,M4J 1M6",43.6818674818182,-79.3312111272727,30,1,0.5,30,0.584215145558119
"456","RETAIL STORE (FOOD)","MANDALA GIFT AND VARIETY","TORONTO, ON","M6K 1M4","QUEEN ST W","1496 QUEEN ST W,TORONTO, ON,M6K 1M4",43.640478,-79.4377958,30,1,0.5,33,2.89454123360996
"457","RETAIL STORE (FOOD)","GREEN PRESS","TORONTO, ON","M4W 1A8","BLOOR ST E","2 BLOOR ST E,TORONTO, ON,M4W 1A8",43.6707855,-79.3856867,30,1,0.5,41,4.81913240601249
"458","RETAIL STORE (FOOD)","TORONTO EAST HEALTH NETWORK","TORONTO, ON","M4C 3E7","COXWELL AVE","825 COXWELL AVE,TORONTO, ON,M4C 3E7",43.69016025,-79.3250179024627,30,1,0.5,35,1.35722635141223
"459","RETAIL STORE (FOOD)","SHOLA VEGANITHALI","TORONTO, ON","M4C 1L7","DANFORTH AVE","2768 DANFORTH AVE,TORONTO, ON,M4C 1L7",43.68935415,-79.2971043625,30,1,0.5,34,0.15069232089445
"460","RETAIL STORE (FOOD)","STOREASY","TORONTO, ON","M4K 3T6","PAPE AVE","846 PAPE AVE,TORONTO, ON,M4K 3T6",43.6835866,-79.3467941,30,1,0.5,19,0.822255030980899
"461","RETAIL STORE (FOOD)","TORISHO BEACH","TORONTO, ON","M4L 1H6","QUEEN ST E","1940 QUEEN ST E,TORONTO, ON,M4L 1H6",43.6695167071429,-79.30307605,30,1,0.5,31,0.332874438259751
"462","RETAIL STORE (FOOD)","ONE LIFE GRAB & GO","TORONTO, ON","M4B 3H6","CRANFIELD RD","45 CRANFIELD RD,TORONTO, ON,M4B 3H6",43.7148556958186,-79.3096401526473,30,1,0.5,33,2.38024245996066
"463","RETAIL STORE (FOOD)","PISCES GOURMET","TORONTO, ON","M4W 2L7","YONGE ST","1097 YONGE ST,TORONTO, ON,M4W 2L7",43.6800674,-79.3906138,30,1,0.5,24,0.13969857492775
"464","RETAIL STORE (FOOD)","PITA LITE SHAWARMA","TORONTO, ON","M4W 3R8","BLOOR ST E","175 BLOOR ST E,TORONTO, ON,M4W 3R8",43.6707979,-79.3821154,30,1,0.5,31,0.347092021194265
"465","RETAIL STORE (FOOD)","LESLIEVILLE MEAT MARKET","TORONTO, ON","M4M 1L4","QUEEN ST E","1160 QUEEN ST E,TORONTO, ON,M4M 1L4",43.6628453,-79.3327019053891,30,1,0.5,28,1.69008380911293
"466","RETAIL STORE (FOOD)","GALLERIA EXPRESS","TORONTO, ON","M4P 2C6","YONGE ST","2293 YONGE ST,TORONTO, ON,M4P 2C6",43.7076137,-79.398336,30,1,0.5,42,0.589974224101752
"467","RETAIL STORE (FOOD)","SHOPPERS DRUG MART","TORONTO, ON","M4W 2K9","YONGE ST","1027 YONGE ST,TORONTO, ON,M4W 2K9",43.6775638,-79.389507,30,1,0.5,34,0.124536374118179
"468","RETAIL STORE (FOOD)","BROADVIEW MEDICAL PHARMACY","TORONTO, ON","M4K 2P6","BROADVIEW AVE","743 BROADVIEW AVE,TORONTO, ON,M4K 2P6",43.6757757428571,-79.3582196857143,30,1,0.5,26,3.06455988420134
"469","RETAIL STORE (FOOD)","GATEWAY NEWSTANDS #107","TORONTO, ON","M4S 1Z2","YONGE ST","1900 YONGE ST,TORONTO, ON,M4S 1Z2",43.697936,-79.3972908,30,1,0.5,25,4.1037591153518
"470","RETAIL STORE (FOOD)","GATEWAY NEWSTANDS","TORONTO, ON","M4K 1R3","DANFORTH AVE","650 DANFORTH AVE,TORONTO, ON,M4K 1R3",43.6790247,-79.3451187,30,1,0.5,26,1.89188726610484
"471","RETAIL STORE (FOOD)","LA SALUMERIA DELICATESSEN FOODS","TORONTO, ON","M4S 2A2","YONGE ST","2021 YONGE ST,TORONTO, ON,M4S 2A2",43.7013162,-79.3971144,30,1,0.5,28,0.10772591121442
"472","RETAIL STORE (FOOD)","REHOBOTH CAFE","TORONTO, ON","M4C 1L8","DANFORTH AVE","2737 DANFORTH AVE,TORONTO, ON,M4C 1L8",43.68897831875,-79.297527975,30,1,0.5,37,0.0737460148520768
"473","RETAIL STORE (FOOD)","J K PIZZA","TORONTO, ON","M4C 3E7","COXWELL AVE","825 COXWELL AVE,TORONTO, ON,M4C 3E7",43.69016025,-79.3250179024627,30,1,0.5,24,0.593728499952704
"474","RETAIL STORE (FOOD)","ORIENTAL CHOPSTICKS","TORONTO, ON","M4C 3E7","COXWELL AVE","825 COXWELL AVE,TORONTO, ON,M4C 3E7",43.69016025,-79.3250179024627,30,1,0.5,34,0.336203072685748
"475","RETAIL STORE (FOOD)","HOUSE OF HALAL MEAT 786","TORONTO, ON","M4H 1C3","OVERLEA BLVD","45 OVERLEA BLVD,TORONTO, ON,M4H 1C3",43.7061606,-79.3451616,30,1,0.5,33,0.768056017147961
"476","RETAIL STORE (FOOD)","VECTOR IMPORTING","TORONTO, ON","M4M 3G6","GERRARD ST E","1000 GERRARD ST E,TORONTO, ON,M4M 3G6",43.66930005,-79.3398612737603,30,1,0.5,34,0.944206352303636
"477","RETAIL STORE (FOOD)","KREAM","TORONTO, ON","M4Y 1X9","YONGE ST","526 YONGE ST,TORONTO, ON,M4Y 1X9",43.663719,-79.38420425,30,1,0.5,29,0.488435716368258
"478","RETAIL STORE (FOOD)","SHOPPERS DRUG MART #939","TORONTO, ON","M4T 1Z2","YONGE ST","1507 YONGE ST,TORONTO, ON,M4T 1Z2",43.6893355,-79.3943034,30,1,0.5,30,0.449723904952407
"479","RETAIL STORE (FOOD)","GUARDIAN THEODORE PHARMACY","TORONTO, ON","M4B 2T8","O'CONNOR DR","1450 O'CONNOR DR,TORONTO, ON,M4B 2T8",43.7132110333333,-79.3070136666667,30,1,0.5,31,3.31568914635067
"480","RETAIL STORE (FOOD)","U TEA","TORONTO, ON","M4W 2H2","YONGE ST","901 YONGE ST,TORONTO, ON,M4W 2H2",43.6748672,-79.3884929,30,1,0.5,35,0.228050130419433
"481","RETAIL STORE (FOOD)","SQUARE G CONVENIENCE","TORONTO, ON","M4L 1H9","QUEEN ST E","1973 QUEEN ST E,TORONTO, ON,M4L 1H9",43.6696826,-79.3009213,30,1,0.5,35,0.794789290870651
"482","RETAIL STORE (FOOD)","ISABELLA'S BOUTIQUE","TORONTO, ON","M4E 1C9","QUEEN ST E","2066 QUEEN ST E,TORONTO, ON,M4E 1C9",43.6707477,-79.297255,30,1,0.5,31,0.303208267316222
"483","RETAIL STORE (FOOD)","MARATHON CAFE","TORONTO, ON","M4Y 1N1","ISABELLA ST","30 ISABELLA ST,TORONTO, ON,M4Y 1N1",43.66812495,-79.38438075,30,1,0.5,35,1.0828376635489
"484","RETAIL STORE (FOOD)","THE SUNSET MARKET PLACE","TORONTO, ON","M4L 1G1","QUEEN ST E","1586 QUEEN ST E,TORONTO, ON,M4L 1G1",43.6660987,-79.3180575,30,1,0.5,33,0.383988446998276
"485","RETAIL STORE (FOOD)","DOLLARAMA #1520","TORONTO, ON","M4N 3N1","YONGE ST","3080 YONGE ST,TORONTO, ON,M4N 3N1",43.7256028,-79.4025228,30,1,0.5,14,0.386544332669944
"486","RETAIL STORE (FOOD)","ISSHO","TORONTO, ON","M4M 1Y2","GERRARD ST E","583 GERRARD ST E,TORONTO, ON,M4M 1Y2",43.6654204,-79.3522456,30,1,0.5,32,1.03311150598559
"487","RETAIL STORE (FOOD)","RIMINI DE LA MER","TORONTO, ON","M4G 3B5","BAYVIEW AVE","1543 BAYVIEW AVE,TORONTO, ON,M4G 3B5",43.7057105,-79.3751489,30,1,0.5,37,0.628229416441172
"488","RETAIL STORE (FOOD)","THE DETOX MARKET","TORONTO, ON","M4W 2L9","YONGE ST","1170 YONGE ST,TORONTO, ON,M4W 2L9",43.6804706,-79.3911344,30,1,0.5,33,0.226059773005545
"489","RETAIL STORE (FOOD)","GREENWOOD MARKET","TORONTO, ON","M4J 1M6","DANFORTH AVE","1258 DANFORTH AVE,TORONTO, ON,M4J 1M6",43.6819564212121,-79.3308208848485,30,1,0.5,33,0.287968808785081
"490","RETAIL STORE (FOOD)","CIRCLE K","TORONTO, ON","M4T 1K2","PLEASANT BLVD","11 PLEASANT BLVD,TORONTO, ON,M4T 1K2",43.6870035,-79.392884190916,30,1,0.5,32,2.05310528903248
"491","RETAIL STORE (FOOD)","SHOPPERS DRUG MART #982","TORONTO, ON","M4G 3B5","BAYVIEW AVE","1601 BAYVIEW AVE,TORONTO, ON,M4G 3B5",43.706172578331,-79.375155619278,30,1,0.5,31,0.835511065977526
"492","RETAIL STORE (FOOD)","AIONIONS MED SPA","TORONTO, ON","M4L 1J3","QUEEN ST E","2010 QUEEN ST E,TORONTO, ON,M4L 1J3",43.670257,-79.2995082,30,1,0.5,24,0.321780585218221
"493","RETAIL STORE (FOOD)","MI AMOR MEXICAN STORE","TORONTO, ON","M4S 2M5","MOUNT PLEASANT RD","615 MOUNT PLEASANT RD,TORONTO, ON,M4S 2M5",43.70410752,-79.38835204,30,1,0.5,24,2.11831663565037
"494","RETAIL STORE (FOOD)","MAX INTERSTELLAR EXPRESS","TORONTO, ON","M4M 1Y2","GERRARD ST E","651 GERRARD ST E,TORONTO, ON,M4M 1Y2",43.6658440292981,-79.3501863552888,30,1,0.5,18,0.105573926690729
"495","RETAIL STORE (FOOD)","POKE EATS","TORONTO, ON","M4L 1H6","QUEEN ST E","1934 QUEEN ST E,TORONTO, ON,M4L 1H6",43.6694704428571,-79.3032829,30,1,0.5,20,1.04988895538719
"496","RETAIL STORE (FOOD)","HATTENDO CAFE","TORONTO, ON","M4W 3L8","BLOOR ST W","50 BLOOR ST W,TORONTO, ON,M4W 3L8",43.6701518,-79.3882988,30,1,0.5,21,1.14893149207802
"497","RETAIL STORE (FOOD)","SR-EXPRESS COMPOSITE FOOD MARKET","TORONTO, ON","M4Y 2C6","CHURCH ST","497 CHURCH ST,TORONTO, ON,M4Y 2C6",43.6654873,-79.3807217,30,1,0.5,40,2.8449062450769
"498","RETAIL STORE (FOOD)","TIGER SUGAR","TORONTO, ON","M4P 2E7","YONGE ST","2391 YONGE ST,TORONTO, ON,M4P 2E7",43.7099322903226,-79.3988794806452,30,1,0.5,26,2.8095822034586
"499","RETAIL STORE (FOOD)","BLONDIES PIZZA","TORONTO, ON","M4R 1B2","EGLINTON AVE W","280 EGLINTON AVE W,TORONTO, ON,M4R 1B2",43.7049673,-79.4073854,30,1,0.5,45,0.304660402238369
"500","RETAIL STORE (FOOD)","SUPER CHICKEN DT","TORONTO, ON","M4Y 1Z8","YONGE ST","628 YONGE ST,TORONTO, ON,M4Y 1Z8",43.6662744,-79.3852798,30,1,0.5,42,1.03033147003026
"501","RETAIL STORE (FOOD)","YONGE DRUG MART","TORONTO, ON","M4P 2E7","YONGE ST","2399 YONGE ST,TORONTO, ON,M4P 2E7",43.7101286,-79.3989111,30,1,0.5,21,2.59778870443318
"502","RETAIL STORE (FOOD)","PLAYGROUND CAFE","TORONTO, ON","M4X 1P2","PARLIAMENT ST","492 PARLIAMENT ST,TORONTO, ON,M4X 1P2",43.6649128,-79.3683928,30,1,0.5,33,1.6408002822751
"503","RETAIL STORE (FOOD)","INS MARKET 5206","TORONTO, ON","M4H 1C3","OVERLEA BLVD","45 OVERLEA BLVD,TORONTO, ON,M4H 1C3",43.7061606,-79.3451616,30,1,0.5,32,0.112424621307243
"504","RETAIL STORE (FOOD)","SHOPPERS DRUG MART #871","TORONTO, ON","M4H 1C3","OVERLEA BLVD","45 OVERLEA BLVD,TORONTO, ON,M4H 1C3",43.7061606,-79.3451616,30,1,0.5,33,0.90749221119544
"505","RETAIL STORE (FOOD)","POSTABLES","TORONTO, ON","M4K 1N8","DANFORTH AVE","358 DANFORTH AVE,TORONTO, ON,M4K 1N8",43.6775243,-79.352765,30,1,0.5,36,0.0335459541529417
"506","RETAIL STORE (FOOD)","LA SANI GRILL","TORONTO, ON","M4M 3G6","GERRARD ST E","1000 GERRARD ST E,TORONTO, ON,M4M 3G6",43.66930005,-79.3398612737603,30,1,0.5,26,2.0805397274575
"507","RETAIL STORE (FOOD)","B'CEN","TORONTO, ON","M4Y 1X9","YONGE ST","506 YONGE ST,TORONTO, ON,M4Y 1X9",43.6633512,-79.3840832,30,1,0.5,26,0.209259270826653
"508","RETAIL STORE (FOOD)","SHOPPERS DRUG MART #807","TORONTO, ON","M4W 3G7","BLOOR ST E","20 BLOOR ST E,TORONTO, ON,M4W 3G7",43.6709328,-79.3845937,30,1,0.5,35,1.33553195833684
"509","RETAIL STORE (FOOD)","CANADIAN OUTLET","TORONTO, ON","M4T 1Y9","YONGE ST","1431 YONGE ST,TORONTO, ON,M4T 1Y9",43.6877624,-79.393775,30,1,0.5,27,0.137781621537917
"510","RETAIL STORE (FOOD)","DOLLARAMA #1490","TORONTO, ON","M4P 2E6","YONGE ST","2360 YONGE ST,TORONTO, ON,M4P 2E6",43.7087573,-79.3990961,30,1,0.5,28,0.647404547780752
"511","RETAIL STORE (FOOD)","STOP VARIETY","TORONTO, ON","M4J 1L7","DANFORTH AVE","868 DANFORTH AVE,TORONTO, ON,M4J 1L7",43.6800224636364,-79.3400518272727,30,1,0.5,33,0.278852291405201
"512","RETAIL STORE (FOOD)","RAMDEV","TORONTO, ON","M4Y 1Z2","YONGE ST","573 YONGE ST,TORONTO, ON,M4Y 1Z2",43.6654018,-79.384599,30,1,0.5,36,0.545389642007649
"513","RETAIL STORE (FOOD)","IHALO KRUNCH DANFORTH","TORONTO, ON","M4K 1R1","DANFORTH AVE","602 DANFORTH AVE,TORONTO, ON,M4K 1R1",43.6787770363636,-79.3463486454546,30,1,0.5,19,0.524624839890748
"514","RETAIL STORE (FOOD)","UNHOLY DONUTS","TORONTO, ON","M4Y 1E3","MAITLAND ST","95 MAITLAND ST,TORONTO, ON,M4Y 1E3",43.664585,-79.380348,30,1,0.5,32,0.0758993621027169
"515","RETAIL STORE (FOOD)","JOHNSON FAMILY BAKERY","TORONTO, ON","M4M 1K2","QUEEN ST E","993 QUEEN ST E,TORONTO, ON,M4M 1K2",43.6613013,-79.3380792,30,1,0.5,24,2.09338405156944
"516","RETAIL STORE (FOOD)","TIM HORTONS","TORONTO, ON","M4C 3E7","COXWELL AVE","825 COXWELL AVE,TORONTO, ON,M4C 3E7",43.69016025,-79.3250179024627,30,1,0.5,29,3.2922100497592
"517","RETAIL STORE (FOOD)","TIM HORTONS","TORONTO, ON","M4C 2Z7","O'CONNOR DR","561 O'CONNOR DR,TORONTO, ON,M4C 2Z7",43.6977219,-79.3290027,30,1,0.5,27,0.149044441516002
"518","RETAIL STORE (FOOD)","WINE RACK","TORONTO, ON","M4C 1J4","DANFORTH AVE","1862 DANFORTH AVE,TORONTO, ON,M4C 1J4",43.6848287857143,-79.3173534285714,30,1,0.5,28,2.59030382508848
"519","RETAIL STORE (FOOD)","WINE RACK","TORONTO, ON","M4E 1E3","QUEEN ST E","2142B QUEEN ST E,TORONTO, ON,M4E 1E3",43.6720581,-79.2904762,30,1,0.5,17,1.13314394834907
"520","RETAIL STORE (FOOD)","ROBYN'S COOKIES","TORONTO, ON","M4P 2L7","MOUNT PLEASANT RD","953 MOUNT PLEASANT RD,TORONTO, ON,M4P 2L7",43.7124705,-79.3914889,30,1,0.5,30,3.04021833820229
"521","RETAIL STORE (FOOD)","WINE RACK","TORONTO, ON","M4P 2H5","YONGE ST","2466 YONGE ST,TORONTO, ON,M4P 2H5",43.7112089857143,-79.3995194,30,1,0.5,31,2.14185723836038
"522","RETAIL STORE (FOOD)","BOBAHOLIC","TORONTO, ON","M4W 3J6","BLOOR ST E","345 BLOOR ST E,TORONTO, ON,M4W 3J6",43.6718025,-79.3784904,30,1,0.5,20,2.09404260466311
"523","RETAIL STORE (FOOD)","TROPICAL JOE'S","TORONTO, ON","M4M 3G6","GERRARD ST E","1000 GERRARD ST E,TORONTO, ON,M4M 3G6",43.66930005,-79.3398612737603,30,1,0.5,28,0.0332579315325833
"524","RETAIL STORE (FOOD)","SHOPPERS DRUG MART #814","TORONTO, ON","M4C 1K9","DANFORTH AVE","2494 DANFORTH AVE,TORONTO, ON,M4C 1K9",43.6880294,-79.3032774,30,1,0.5,35,0.860927384304714
"525","RETAIL STORE (FOOD)","WINE RACK","TORONTO, ON","M4C 1M9","DANFORTH AVE","3003 DANFORTH AVE,TORONTO, ON,M4C 1M9",43.689662,-79.2890060790984,30,1,0.5,41,0.646451970096678
"526","RETAIL STORE (FOOD)","WINE RACK","TORONTO, ON","M4S 3E2","YONGE ST","1920 YONGE ST,TORONTO, ON,M4S 3E2",43.6987153,-79.3968795,30,1,0.5,31,0.135747478903453
"527","RETAIL STORE (FOOD)","WINE RACK","TORONTO, ON","M4X 1W7","SHERBOURNE ST","563D SHERBOURNE ST,TORONTO, ON,M4X 1W7",43.6697248,-79.3757758,30,1,0.5,32,0.532431280706078
"528","RETAIL STORE (FOOD)","WISE MART","TORONTO, ON","M4S 1Y6","YONGE ST","1901 YONGE ST,TORONTO, ON,M4S 1Y6",43.6979819,-79.3962858,30,1,0.5,38,1.03364571866607
"529","RETAIL STORE (FOOD)","DANFORTH VILLAGE","TORONTO, ON","M4C 1L1","DANFORTH AVE","2517 DANFORTH AVE,TORONTO, ON,M4C 1L1",43.6878443,-79.3026137571429,30,1,0.5,37,0.391340729314834
"530","RETAIL STORE (FOOD)","STOP AND GO MART","TORONTO, ON","M4B 2V7","O'CONNOR DR","1541 O'CONNOR DR,TORONTO, ON,M4B 2V7",43.7145851444444,-79.3055070277778,30,1,0.5,36,1.48542434974288
"531","RETAIL STORE (FOOD)","SHOPPERS DRUG MART","TORONTO, ON","M4L 3B5","COXWELL AVE","265 COXWELL AVE,TORONTO, ON,M4L 3B5",43.6733320372093,-79.3192856441861,30,1,0.5,33,0.577664217911661
"532","RETAIL STORE (FOOD)","KUNG FU TEA BROADVIEW","TORONTO, ON","M4K 1N7","DANFORTH AVE","315 DANFORTH AVE,TORONTO, ON,M4K 1N7",43.6770809733333,-79.3536707533333,30,1,0.5,22,0.544246294070035
"533","RETAIL STORE (FOOD)","MOS MOS COFFEE","TORONTO, ON","M4W 1A9","BLOOR ST E","31 BLOOR ST E,TORONTO, ON,M4W 1A9",43.6703581333333,-79.3857058,30,1,0.5,33,1.4221043679023
"534","RETAIL STORE (FOOD)","WHISKFUL THINKING BAKERY","TORONTO, ON","M4Y 1H2","WELLESLEY ST E","72 WELLESLEY ST E,TORONTO, ON,M4Y 1H2",43.6658681,-79.3806604,30,1,0.5,22,1.06014437410505
"535","RETAIL STORE (FOOD)","MILK MART CONVENIENCE","TORONTO, ON","M4K 3W2","PAPE AVE","1034 PAPE AVE,TORONTO, ON,M4K 3W2",43.6875883,-79.3481303,30,1,0.5,22,1.9270640387291
"536","RETAIL STORE (FOOD)","6IX PIZZAS","TORONTO, ON","M4E 1C9","QUEEN ST E","2070 QUEEN ST E,TORONTO, ON,M4E 1C9",43.6708192,-79.2970854,30,1,0.5,30,1.46442658632042
"537","RETAIL STORE (FOOD)","CIRCLE K CONVENIENCE STORE","TORONTO, ON","M5B 1M4","YONGE ST","211 YONGE ST,TORONTO, ON,M5B 1M4",43.6536794,-79.379657,30,1,0.5,34,0.362755703734438
"538","RETAIL STORE (FOOD)","MAPLE LEAF CONVENIENCE SHOP","TORONTO, ON","M4Y 2C5","CHURCH ST","445 CHURCH ST,TORONTO, ON,M4Y 2C5",43.6638446,-79.3800366,30,1,0.5,28,3.70941655875599
"539","RETAIL STORE (FOOD)","LESLIE'S SANDWICH ROOM","TORONTO, ON","M4M 1K2","QUEEN ST E","969 QUEEN ST E,TORONTO, ON,M4M 1K2",43.6612077,-79.3384839,30,1,0.5,25,2.08633716177466
"540","RETAIL STORE (FOOD)","TRIO COCO","TORONTO, ON","M4N 2M7","YONGE ST","3360 YONGE ST,TORONTO, ON,M4N 2M7",43.7323133,-79.4042873,30,1,0.5,29,2.27197796266914
"541","RETAIL STORE (FOOD)","PRICE WAR","TORONTO, ON","M4K 1R3","DANFORTH AVE","644 DANFORTH AVE,TORONTO, ON,M4K 1R3",43.6790016,-79.3452354681818,30,1,0.5,26,1.42690721299599
"542","RETAIL STORE (FOOD)","SHOPPERS DRUG MART #1240","TORONTO, ON","M4N 2M7","YONGE ST","3366 YONGE ST,TORONTO, ON,M4N 2M7",43.732228,-79.404397,30,1,0.5,35,0.562211864627898
"543","RETAIL STORE (FOOD)","HAPPY CONVENIENCE","TORONTO, ON","M4A 2M2","VICTORIA PARK AVE","1468 VICTORIA PARK AVE,TORONTO, ON,M4A 2M2",43.7224852,-79.3022676,30,1,0.5,35,0.21506483014673
"544","RETAIL STORE (FOOD)","SHOPPERS DRUG MART #823","TORONTO, ON","M4M 1J8","QUEEN ST E","970 QUEEN ST E,TORONTO, ON,M4M 1J8",43.6611258,-79.3403596,30,1,0.5,24,0.113279486476421
"545","RETAIL STORE (FOOD)","GLOBOL FOODTECH","TORONTO, ON","M4M 3H9","LESLIE ST","17 LESLIE ST,TORONTO, ON,M4M 3H9",43.6608477,-79.3289747,30,1,0.5,25,2.26736024568293
"546","RETAIL STORE (FOOD)","LITTLE CAESARS","TORONTO, ON","M4M 3G6","GERRARD ST E","1000 GERRARD ST E,TORONTO, ON,M4M 3G6",43.66930005,-79.3398612737603,30,1,0.5,42,0.205165105406195
"547","RETAIL STORE (FOOD)","BIKE DEPOT LEASIDE","TORONTO, ON","M4G 3B7","BAYVIEW AVE","1588 BAYVIEW AVE,TORONTO, ON,M4G 3B7",43.705728415,-79.37536132,30,1,0.5,27,0.444686950650066
"548","RETAIL STORE (FOOD)","VILLAGE JUICERY","TORONTO, ON","M4K 1R1","DANFORTH AVE","598 DANFORTH AVE,TORONTO, ON,M4K 1R1",43.6787623090909,-79.3464241363637,30,1,0.5,32,4.00590220631516
"549","RETAIL STORE (FOOD)","VILLAGE JUICERY","TORONTO, ON","M4P 2E7","YONGE ST","2415 YONGE ST,TORONTO, ON,M4P 2E7",43.7103561612903,-79.3989712225807,30,1,0.5,34,0.578138866927475
"550","RETAIL STORE (FOOD)","BEST SEASON","TORONTO, ON","M4P 2J1","YONGE ST","2563 YONGE ST,TORONTO, ON,M4P 2J1",43.713857,-79.399687,30,1,0.5,31,1.01461630124123
"551","RETAIL STORE (FOOD)","HASTY MARKET #504","TORONTO, ON","M4E 1E3","QUEEN ST E","2122 QUEEN ST E,TORONTO, ON,M4E 1E3",43.6713763,-79.2942964,30,1,0.5,28,0.289045764134696
"552","RETAIL STORE (FOOD)","MAESTRO'S GOURMET PIZZA","TORONTO, ON","M4L 1S4","KINGSTON RD","66 KINGSTON RD,TORONTO, ON,M4L 1S4",43.6690193,-79.3118784,30,1,0.5,28,0.426440937444568
