"","Category","Operating.Name","city","Zip","Street","Address","lat","long","lamda","mu","qCustomer","tCustomer"
"1","RETAIL STORE (FOOD)","TIERRA AZTECA INC","TORONTO, ON","M6H 1M7","BLOOR ST W","1115 BLOOR ST W,TORONTO, ON,M6H 1M7",43.65974935,-79.4346428024648,25,1,25,0.349019997753203
"2","RETAIL STORE (FOOD)","NASSAU VARIETY","TORONTO, ON","M5T 1M7","NASSAU ST","90 NASSAU ST,TORONTO, ON,M5T 1M7",43.6550488,-79.4038508,25,1,27,0.248459780588746
"3","RETAIL STORE (FOOD)","RABBA FINE FOODS","TORONTO, ON","M4Y 1M7","ISABELLA ST","9 ISABELLA ST,TORONTO, ON,M4Y 1M7",43.6675189,-79.3850163,25,1,18,1.15335518117518
"4","RETAIL STORE (FOOD)","THE NUTRITION BAR","TORONTO, ON","M4Y 1M7","ISABELLA ST","5 ISABELLA ST,TORONTO, ON,M4Y 1M7",43.6675344,-79.3853342,25,1,29,1.58506389326396
"5","RETAIL STORE (FOOD)","MASTERMIND TOYS","TORONTO, ON","M4N 2M7","YONGE ST","3350 YONGE ST,TORONTO, ON,M4N 2M7",43.7319722,-79.4042331,25,1,26,0.0669890960817437
"6","RETAIL STORE (FOOD)","INS MARKET","TORONTO, ON","M5H 3M7","UNIVERSITY AVE","181 UNIVERSITY AVE,TORONTO, ON,M5H 3M7",43.6492481,-79.3852114,25,1,22,0.0564728048519798
"7","RETAIL STORE (FOOD)","TRIO COCO","TORONTO, ON","M4N 2M7","YONGE ST","3360 YONGE ST,TORONTO, ON,M4N 2M7",43.7323133,-79.4042873,25,1,27,2.72258753130648
"8","RETAIL STORE (FOOD)","SHOPPERS DRUG MART #1240","TORONTO, ON","M4N 2M7","YONGE ST","3366 YONGE ST,TORONTO, ON,M4N 2M7",43.732228,-79.404397,25,1,25,0.703046874101174
"9","PERSONAL SERVICES SETTINGS","P&H SALON AND SPA","TORONTO, ON","M5H 3M7","UNIVERSITY AVE","181 UNIVERSITY AVE,TORONTO, ON,M5H 3M7",43.6492481,-79.3852114,15,0.5,8,4.91371936250272
"10","PERSONAL SERVICES SETTINGS","BLO BLOW DRY BAR","TORONTO, ON","M5V 1M7","KING ST W","626 KING ST W,TORONTO, ON,M5V 1M7",43.6443326756303,-79.4010938701907,15,0.5,16,0.247557130830689
"11","PERSONAL SERVICES SETTINGS","DA-OL HAIR STUDIO","TORONTO, ON","M4V 1M7","ST CLAIR AVE W","76 ST CLAIR AVE W,TORONTO, ON,M4V 1M7",43.6874713,-79.3978101,15,0.5,14,1.40014485640367
"12","LAUNDRY","PLATIS CUSTOM CLEANERS","TORONTO, ON","M5H 3M7","UNIVERSITY AVE","181 UNIVERSITY AVE,TORONTO, ON,M5H 3M7",43.6492481,-79.3852114,5,0.25,2,18.363144754805
"13","EATING ESTABLISHMENT","McDONALD'S","TORONTO, ON","M4N 2M7","YONGE ST","3400 YONGE ST,TORONTO, ON,M4N 2M7",43.7326615,-79.4045100654519,45,0.5,44,2.31946452326121
"14","EATING ESTABLISHMENT","MAY'S DELI","TORONTO, ON","M5H 3M7","UNIVERSITY AVE","181 UNIVERSITY AVE,TORONTO, ON,M5H 3M7",43.6492481,-79.3852114,45,0.5,41,1.96044501312737
"15","EATING ESTABLISHMENT","AZTECA RESTAURANT","TORONTO, ON","M6H 1M7","BLOOR ST W","1115 BLOOR ST W,TORONTO, ON,M6H 1M7",43.65974935,-79.4346428024648,45,0.5,32,4.73250766186198
"16","EATING ESTABLISHMENT","POPEYES CHICKEN AND BISCUITS","TORONTO, ON","M6H 1M7","BLOOR ST W","1115 BLOOR ST W,TORONTO, ON,M6H 1M7",43.65974935,-79.4346428024648,45,0.5,46,2.98879034055357
"17","EATING ESTABLISHMENT","A & W RESTAURANT","TORONTO, ON","M6H 1M7","BLOOR ST W","1115 BLOOR ST W,TORONTO, ON,M6H 1M7",43.65974935,-79.4346428024648,45,0.5,51,0.224300843628873
"18","EATING ESTABLISHMENT","THE PARLOUR RESTUARANT TORONTO","TORONTO, ON","M5V 1M7","KING ST W","642 KING ST W,TORONTO, ON,M5V 1M7",43.6444009,-79.4015624,45,0.5,47,8.39279667237654
"19","EATING ESTABLISHMENT","LAPINOU","TORONTO, ON","M5V 1M7","KING ST W","642 KING ST W,TORONTO, ON,M5V 1M7",43.6444009,-79.4015624,45,0.5,44,1.73165226533058
"20","EATING ESTABLISHMENT","CASSIUS ON KING","TORONTO, ON","M5V 1M7","KING ST W","624 KING ST W,TORONTO, ON,M5V 1M7",43.644344,-79.401035,45,0.5,36,1.62581365733388
"21","EATING ESTABLISHMENT","KAFE THE KAM","TORONTO, ON","M4Y 1M7","ISABELLA ST","3 ISABELLA ST,TORONTO, ON,M4Y 1M7",43.6675162,-79.3854216,45,0.5,55,1.29819197580218
"22","EATING ESTABLISHMENT","NIHARI INN TORONTO","TORONTO, ON","M5V 1M7","KING ST W","626 KING ST W,TORONTO, ON,M5V 1M7",43.6443326756303,-79.4010938701907,45,0.5,41,3.0649625843928
"23","COMMERCIAL PARKING LOT","OMNI PARK","TORONTO, ON","M5V 1M7","KING ST W","650 KING ST W,TORONTO, ON,M5V 1M7",43.6384893,-79.4458958,20,2,23,0.14442651742138
"24","TEMPORARY SIGN - A-FRAME","CLASSICAL MUSIC CONSERVATORY INC","TORONTO, ON","M6R 2M7","RONCESVALLES AVE","314 RONCESVALLES AVE,TORONTO, ON,M6R 2M7",43.6497573,-79.4505552,2,0.25,0,0.990905130282044
"25","SIDEWALK CAFE","CASSIUS ON KING","TORONTO, ON","M5V 1M7","KING ST W","624 KING ST W,TORONTO, ON,M5V 1M7",43.644344,-79.401035,30,0.3,19,9.76231900298214
"26","PRIVATE TRANSPORTATION COMPANY","LYFT CANADA","TORONTO, ON","M5L 1A9","BAY ST","199 BAY ST,TORONTO, ON,M5L 1A9",43.6481143,-79.3795387,5,0.33,8,0.554258307216294
"27","PRIVATE PARKING ENFORCEMENT AGENCY","SAFEGUARD SECURITY & INVESTIGATION SERVICES","TORONTO, ON","M5G 1E2","EDWARD ST","123 EDWARD ST,TORONTO, ON,M5G 1E2",43.6556316,-79.3870028,5,0.33,2,1.63661314484974
"28","PRIVATE PARKING ENFORCEMENT AGENCY","BLACK & MCDONALD LTD","TORONTO, ON","M5S 1B2","GRENVILLE ST","76 GRENVILLE ST,TORONTO, ON,M5S 1B2",43.66173045,-79.3875392296137,5,0.33,5,0.475916836288171
"29","PRIVATE PARKING ENFORCEMENT AGENCY","MI SECURITY CORP","TORONTO, ON","M5R 3H8","BATHURST ST","1415 BATHURST ST,TORONTO, ON,M5R 3H8",43.6813576,-79.41743,5,0.33,5,3.44273424553514
"30","PRIVATE PARKING ENFORCEMENT AGENCY","UNIVERSITY OF TORONTO","TORONTO, ON","M5S 1A1","KING'S COLLEGE CIR","27 KING'S COLLEGE CIR,TORONTO, ON,M5S 1A1",43.6607231,-79.3959200184599,5,0.33,6,13.6240448569296
"31","SHORT TERM RENTAL COMPANY","AIRBNB","TORONTO, ON","M5J 2T3","BAY ST","181 BAY ST,TORONTO, ON,M5J 2T3",43.6465062,-79.3786735,3,0.33,4,1.3260723627878
"32","DRIVING SCHOOL OPERATOR (B)","TORONTO CENTRAL DRIVING SCHOOL","TORONTO, ON","M5T 3B3","SPADINA AVE","222 SPADINA AVE,TORONTO, ON,M5T 3B3",43.6509933,-79.3977969,5,1,6,0.814107657754775
"33","DRIVING SCHOOL OPERATOR (B)","CHUNGHWA DRIVING SCHOOL","TORONTO, ON","M5T 3A5","SPADINA AVE","280 SPADINA AVE,TORONTO, ON,M5T 3A5",43.6526523,-79.3985239,5,1,7,0.131655717268586
"34","DRIVE-SELF RENTAL OWNER","AVISCAR","TORONTO, ON","M5J 2S1","BAY ST","161 BAY ST,TORONTO, ON,M5J 2S1",43.6469242,-79.3786575,10,0.33,7,0.244703692881352
"35","DRIVE-SELF RENTAL OWNER","BUDGETCAR","TORONTO, ON","M5T 1S2","COLLEGE ST","333 COLLEGE ST,TORONTO, ON,M5T 1S2",43.6573081333333,-79.4025997333333,10,0.33,7,6.29028975938132
"36","DRIVE-SELF RENTAL OWNER","DOLLAR THRIFTY AUTOMOTIVE GROUP CANADA","TORONTO, ON","M5V 3B7","FRONT ST W","330 FRONT ST W,TORONTO, ON,M5V 3B7",43.6439711,-79.3907954,10,0.33,12,1.29623304415748
"37","DRIVE-SELF RENTAL OWNER","ENTERPRISE RENT-A-CAR/ALAMO","TORONTO, ON","M5J 2T3","BAY ST","181 BAY ST,TORONTO, ON,M5J 2T3",43.6465062,-79.3786735,10,0.33,6,1.77943942588613
"38","DRIVE-SELF RENTAL OWNER","ENTERPRISE RENT-A-CAR","TORONTO, ON","M5A 2B7","REGENT PARK BLVD","55/65 REGENT PARK BLVD,TORONTO, ON,M5A 2B7",43.6596929,-79.3615221,10,0.33,8,1.79955702783032
"39","DRIVE-SELF RENTAL OWNER","BUDGET","TORONTO, ON","M5J 2S1","BAY ST","161 BAY ST,TORONTO, ON,M5J 2S1",43.6469242,-79.3786575,10,0.33,12,1.74154306278764
"40","DRIVE-SELF RENTAL OWNER","HERTZ CAR RENTAL","TORONTO, ON","M5J 2S1","BAY ST","161 BAY ST,TORONTO, ON,M5J 2S1",43.6469242,-79.3786575,10,0.33,15,0.999522269844557
"41","DRIVE-SELF RENTAL OWNER","ENTERPRISE RENT-A-CAR","TORONTO, ON","M5A 1A4","POLSON ST","31 POLSON ST,TORONTO, ON,M5A 1A4",43.6412314,-79.354898,10,0.33,10,12.5038214416623
"42","DRIVE-SELF RENTAL OWNER","SIXT RENT A CAR","TORONTO, ON","M5V 3C7","WELLINGTON ST W","200 WELLINGTON ST W,TORONTO, ON,M5V 3C7",43.645944,-79.387904,10,0.33,11,0.583864706145091
"43","DRIVE-SELF RENTAL OWNER","ENTERPRISE RENT-A-CAR","TORONTO, ON","M5G 2C8","BAY ST","777 BAY ST,TORONTO, ON,M5G 2C8",43.6597907,-79.3849782,10,0.33,7,0.0236740782770518
"44","HOLISTIC CENTRE","ELITA BEAUTY HEALTH DESIGN","TORONTO, ON","M4S 2M5","MOUNT PLEASANT RD","617 MOUNT PLEASANT RD,TORONTO, ON,M4S 2M5",43.70413768,-79.38836436,5,1.5,4,0.415195968312522
"45","HOLISTIC CENTRE","JASMINE SPA","TORONTO, ON","M5G 1H1","ELM ST","49 ELM ST,TORONTO, ON,M5G 1H1",43.65729,-79.383996,5,1.5,3,0.178579253765444
"46","HOLISTIC CENTRE","BAHN THAI SPA","TORONTO, ON","M5C 1K9","ADELAIDE ST E","136 ADELAIDE ST E,TORONTO, ON,M5C 1K9",43.6514793,-79.3735779,5,1.5,4,0.641641784431346
"47","HOLISTIC CENTRE","EVERGREEN BEAUTY AND WELLNESS CENTRE","TORONTO, ON","M5T 1G7","DUNDAS ST W","422 DUNDAS ST W,TORONTO, ON,M5T 1G7",43.653616,-79.3952676666667,5,1.5,5,1.7404049100135
"48","HOLISTIC CENTRE","SHIVAGA HEALTH AND WELLNESS","TORONTO, ON","M5T 2E9","SPADINA AVE","327 SPADINA AVE,TORONTO, ON,M5T 2E9",43.6545507,-79.3983966,5,1.5,6,0.792706027598985
"49","HOLISTIC CENTRE","JJ ELITE SPA","TORONTO, ON","M5S 1W5","BLOOR ST W","322 1/2 BLOOR ST W,TORONTO, ON,M5S 1W5",43.6534817,-79.3839347,5,1.5,5,0.109076872778436
"50","HOLISTIC CENTRE","SUMMER SUN SPA","TORONTO, ON","M5T 1G7","DUNDAS ST W","430 DUNDAS ST W,TORONTO, ON,M5T 1G7",43.653586,-79.395415,5,1.5,5,1.3565799332595
"51","HOLISTIC CENTRE","BAMBOO GARDEN HEALTH CENTRE","TORONTO, ON","M5T 1G7","DUNDAS ST W","424 DUNDAS ST W,TORONTO, ON,M5T 1G7",43.6536085,-79.3953045,5,1.5,3,1.5191754263296
"52","HOLISTIC CENTRE","HAPPY YORKVILLE FOOT SPA","TORONTO, ON","M5R 1B9","YORKVILLE AVE","70 YORKVILLE AVE,TORONTO, ON,M5R 1B9",43.6715217,-79.3908954668323,5,1.5,8,1.00889243428272
"53","HOLISTIC CENTRE","YLANG YLANG THAI SPA","TORONTO, ON","M5T 3B3","SPADINA AVE","222 SPADINA AVE,TORONTO, ON,M5T 3B3",43.6509933,-79.3977969,5,1.5,3,0.796278107262461
"54","HOLISTIC CENTRE","NASHA SPA.","TORONTO, ON","M5T 1G7","DUNDAS ST W","428 DUNDAS ST W,TORONTO, ON,M5T 1G7",43.6535935,-79.3953781666667,5,1.5,5,0.342732552128533
"55","HOLISTIC CENTRE","ZHEN ZHEN HEALTH CENTRE","TORONTO, ON","M5T 2E7","SPADINA AVE","326 SPADINA AVE,TORONTO, ON,M5T 2E7",43.6536559388889,-79.3986168611111,5,1.5,5,1.19811442240438
"56","HOLISTIC CENTRE","AMAZE WELLNESS CENTRE & SPA","TORONTO, ON","M5N 1B1","EGLINTON AVE W","525 EGLINTON AVE W,TORONTO, ON,M5N 1B1",43.7032429,-79.4138664698118,5,1.5,8,0.483116075368532
"57","HOLISTIC CENTRE","EASTERN BAY SPA","TORONTO, ON","M5R 1B8","YORKVILLE AVE","69 YORKVILLE AVE,TORONTO, ON,M5R 1B8",43.6710333,-79.3909519,5,1.5,5,0.227120636341472
"58","ADULT ENTERTAINMENT CLUB","ZANZIBAR CIRCUS TAVERN","TORONTO, ON","M5B 1S1","YONGE ST","359 YONGE ST,TORONTO, ON,M5B 1S1",43.6580739,-79.3814822,5,1,8,0.711068678044346
"59","PLACE OF AMUSEMENT","NET PLAZA CYBER CAFE","TORONTO, ON","M5T 1R6","COLLEGE ST","267 COLLEGE ST,TORONTO, ON,M5T 1R6",43.6576064,-79.3995305,15,1,14,0.340150899312069
"60","PLACE OF AMUSEMENT","RIPLEY'S AQUARIUM OF CANADA","TORONTO, ON","M5V 3L9","BREMNER BLVD","280 BREMNER BLVD,TORONTO, ON,M5V 3L9",43.6410381,-79.3874061,15,1,11,0.414752946621941
"61","PLACE OF AMUSEMENT","LEVELUP REALITY","TORONTO, ON","M5C 2G8","CHURCH ST","124 CHURCH ST,TORONTO, ON,M5C 2G8",43.6523151,-79.3755964,15,1,17,2.63587031314585
"62","PLACE OF AMUSEMENT","EEXIT YORKVILLE","TORONTO, ON","M5R 1B9","YORKVILLE AVE","70 YORKVILLE AVE,TORONTO, ON,M5R 1B9",43.6715217,-79.3908954668323,15,1,18,0.0613656337836324
"63","PLACE OF AMUSEMENT","ESCAPE MANOR TORONTO","TORONTO, ON","M5V 1K1","KING ST W","383 KING ST W,TORONTO, ON,M5V 1K1",43.6456796,-79.3933435,15,1,18,0.149258239194751
"64","PLACE OF AMUSEMENT","LITTLE CANADA","TORONTO, ON","M5B 2G9","DUNDAS ST E","10 DUNDAS ST E,TORONTO, ON,M5B 2G9",43.6570352,-79.3804595895349,15,1,20,3.75826851071274
"65","PLACE OF AMUSEMENT","ENIGMA ESCAPE ROOM","TORONTO, ON","M5G 1C3","DUNDAS ST W","130 DUNDAS ST W,TORONTO, ON,M5G 1C3",43.6557636,-79.3845946,15,1,11,0.354181836824864
"66","BILLIARD HALL","HORSESHOE TAVERN","TORONTO, ON","M5V 2A2","QUEEN ST W","370 QUEEN ST W,TORONTO, ON,M5V 2A2",43.6490494,-79.395904,20,1,22,0.219973954837769
"67","BILLIARD HALL","ANNEX BILLIARDS CLUB","TORONTO, ON","M5S 1Y2","BLOOR ST W","507 BLOOR ST W,TORONTO, ON,M5S 1Y2",43.6655159,-79.4082527,20,1,25,3.25260732306128
"68","BILLIARD HALL","MR.8 BILLIARDS","TORONTO, ON","M5T 2G5","SPADINA AVE","388 SPADINA AVE,TORONTO, ON,M5T 2G5",43.6554413,-79.399342,20,1,27,0.0588417753060381
"69","SMOKE SHOP","B SLEUTH & STATESMAN INC","TORONTO, ON","M5X 1A9","KING ST W","130 KING ST W,TORONTO, ON,M5X 1A9",43.64841795,-79.3832424528398,10,0.5,5,0.487089698202908
"70","SMOKE SHOP","GATEWAY NEWSTANDS","TORONTO, ON","M5K 1A1","WELLINGTON ST W","66 WELLINGTON ST W,TORONTO, ON,M5K 1A1",43.6472606,-79.3814529,10,0.5,7,3.97892415134196
"71","SMOKE SHOP","CHEERS SMOKE SHOP","TORONTO, ON","M5T 2W7","MCCAUL ST","85 MCCAUL ST,TORONTO, ON,M5T 2W7",43.6530943636364,-79.3908077272727,10,0.5,17,0.637074419297278
"72","RETAIL STORE (FOOD)","BROWN BROTHERS PURVEYORS LTD","TORONTO, ON","M5E 1C2","FRONT ST E","91 FRONT ST E,TORONTO, ON,M5E 1C2",43.649111,-79.37197,25,1,25,0.135192075124053
"73","RETAIL STORE (FOOD)","MIKE'S FISH MARKET","TORONTO, ON","M5E 1C3","FRONT ST E","93 FRONT ST E,TORONTO, ON,M5E 1C3",43.649213,-79.371735,25,1,26,1.57070725961568
"74","RETAIL STORE (FOOD)","DANIEL ET DANIEL CATERING INC","TORONTO, ON","M5A 2L1","CARLTON ST","248 CARLTON ST,TORONTO, ON,M5A 2L1",43.6643028,-79.3683679,25,1,23,0.949667481647634
"75","RETAIL STORE (FOOD)","ST LAWRENCE UPPERCUT MEAT PACKERS LTD","TORONTO, ON","M5E 1C3","FRONT ST E","91 FRONT ST E,TORONTO, ON,M5E 1C3",43.6490998,-79.3718809,25,1,34,2.03866570993307
"76","RETAIL STORE (FOOD)","SUN MING HONG (CANADA) LTD","TORONTO, ON","M5T 1G7","DUNDAS ST W","412 DUNDAS ST W,TORONTO, ON,M5T 1G7",43.6536535,-79.3950835,25,1,27,0.576936739496887
"77","RETAIL STORE (FOOD)","PONESSE FOODS LTD","TORONTO, ON","M5E 1C2","FRONT ST E","95 FRONT ST E,TORONTO, ON,M5E 1C2",43.6491228,-79.3718086,25,1,27,0.0611384477799626
"78","RETAIL STORE (FOOD)","DOMINOS FOODS LTD","TORONTO, ON","M5E 1C3","FRONT ST E","93 FRONT ST E,TORONTO, ON,M5E 1C3",43.649213,-79.371735,25,1,24,1.00487298234822
"79","RETAIL STORE (FOOD)","THE KITCHEN TABLE","TORONTO, ON","M5V 2W8","KING ST W","705 KING ST W,TORONTO, ON,M5V 2W8",43.6434096,-79.4040401,25,1,24,2.1898294034085
"80","RETAIL STORE (FOOD)","PARLIAMENT PHARMACY","TORONTO, ON","M5A 2Z7","PARLIAMENT ST","402 PARLIAMENT ST,TORONTO, ON,M5A 2Z7",43.6616904,-79.367115,25,1,20,0.472510037259948
"81","RETAIL STORE (FOOD)","SUMMER'S SWEET MEMORIES","TORONTO, ON","M5R 1C1","YORKVILLE AVE","101 YORKVILLE AVE,TORONTO, ON,M5R 1C1",43.670822631579,-79.392261368421,25,1,23,2.42935360024188
"82","RETAIL STORE (FOOD)","VICTOR PHARMACY","TORONTO, ON","M5G 1E2","EDWARD ST","123 EDWARD ST,TORONTO, ON,M5G 1E2",43.6556316,-79.3870028,25,1,24,2.56786334315751
"83","RETAIL STORE (FOOD)","HEALTH SERVICE CENTRE","TORONTO, ON","M5A 3A3","PARLIAMENT ST","489 PARLIAMENT ST,TORONTO, ON,M5A 3A3",43.6643125,-79.367824,25,1,26,1.60796206057842
"84","RETAIL STORE (FOOD)","SUGAR & SPICE","TORONTO, ON","M5T 2M1","AUGUSTA AVE","265 AUGUSTA AVE,TORONTO, ON,M5T 2M1",43.6555931428571,-79.4022845428571,25,1,23,0.441880997736007
"85","RETAIL STORE (FOOD)","KENSINGTON FRUIT MARKET","TORONTO, ON","M5T 1K6","ST ANDREW ST","36 ST ANDREW ST,TORONTO, ON,M5T 1K6",43.654162,-79.400269,25,1,26,1.14667599964605
"86","RETAIL STORE (FOOD)","DAVENPORT PHARMACY","TORONTO, ON","M5R 1J3","DAVENPORT RD","219 DAVENPORT RD,TORONTO, ON,M5R 1J3",43.67473825,-79.3960385,25,1,23,0.432054118718952
"87","RETAIL STORE (FOOD)","KSTORE","TORONTO, ON","M5B 1M1","CARLTON ST","99 CARLTON ST,TORONTO, ON,M5B 1M1",43.6621763333333,-79.3773723333333,25,1,22,0.200113257858902
"88","RETAIL STORE (FOOD)","PETER/S NATURAL HEALTH FOODS","TORONTO, ON","M5E 1C3","FRONT ST E","93 FRONT ST E,TORONTO, ON,M5E 1C3",43.649213,-79.371735,25,1,33,2.38051983887765
"89","RETAIL STORE (FOOD)","TUTTI FRUTTI FAMOUS FOOD","TORONTO, ON","M5T 2K1","KENSINGTON AVE","64 KENSINGTON AVE,TORONTO, ON,M5T 2K1",43.6543885,-79.400678,25,1,20,0.862324957693827
"90","RETAIL STORE (FOOD)","NGUYEN HUONG FOOD CO LTD","TORONTO, ON","M5T 2E7","SPADINA AVE","322 SPADINA AVE,TORONTO, ON,M5T 2E7",43.6536639,-79.398642,25,1,19,0.582394905388355
"91","RETAIL STORE (FOOD)","AKIL GIFTS & SOUNEVIRS","TORONTO, ON","M5J 2N5","QUEENS QUAY W","249 QUEENS QUAY W,TORONTO, ON,M5J 2N5",43.638838,-79.385573,25,1,31,0.80787775499892
"92","RETAIL STORE (FOOD)","SOLOWAY'S HOT DOG FACTORY OUTLET","TORONTO, ON","M5C 1N9","RICHMOND ST E","79 RICHMOND ST E,TORONTO, ON,M5C 1N9",43.6525143043478,-79.3748149130435,25,1,16,1.12133916748905
"93","RETAIL STORE (FOOD)","GIA PHAT COMPANY","TORONTO, ON","M5T 2L4","AUGUSTA AVE","155 AUGUSTA AVE,TORONTO, ON,M5T 2L4",43.6528143368421,-79.40116435,25,1,27,1.36505291420491
"94","RETAIL STORE (FOOD)","HERBIE'S HERBS CO","TORONTO, ON","M5V 2B5","QUEEN ST W","556 QUEEN ST W,TORONTO, ON,M5V 2B5",43.6474938,-79.403138,25,1,27,1.37335419184984
"95","RETAIL STORE (FOOD)","FAMILY FOOD MARKET","TORONTO, ON","M5E 1C3","FRONT ST E","93 FRONT ST E,TORONTO, ON,M5E 1C3",43.649213,-79.371735,25,1,22,1.3852471159351
"96","RETAIL STORE (FOOD)","GREEN FARMS","TORONTO, ON","M5R 3H7","BATHURST ST","1364 BATHURST ST,TORONTO, ON,M5R 3H7",43.6799588,-79.4172258,25,1,28,0.502602522727102
"97","RETAIL STORE (FOOD)","SEA KING FISH STORE","TORONTO, ON","M5T 1M1","BALDWIN ST","189 BALDWIN ST,TORONTO, ON,M5T 1M1",43.6545957,-79.4012042,25,1,21,0.230931009631604
"98","RETAIL STORE (FOOD)","BOB'S COVENIENCE","TORONTO, ON","M5A 2Z7","PARLIAMENT ST","316-318 PARLIAMENT ST,TORONTO, ON,M5A 2Z7",43.6618716,-79.3669912,25,1,29,1.51587747401538
"99","RETAIL STORE (FOOD)","WHAT A BAGEL","TORONTO, ON","M5P 2W3","SPADINA RD","421 SPADINA RD,TORONTO, ON,M5P 2W3",43.6889670142857,-79.4126047071429,25,1,28,1.15851418716266
"100","RETAIL STORE (FOOD)","SEAFRONT FISH MARKET","TORONTO, ON","M5E 1C3","FRONT ST E","91 FRONT ST E,TORONTO, ON,M5E 1C3",43.6490998,-79.3718809,25,1,26,0.171236010268331
"101","RETAIL STORE (FOOD)","ST. LAWRENCE GOURMET DELICATESSEN","TORONTO, ON","M5E 1C3","FRONT ST E","91 FRONT ST E,TORONTO, ON,M5E 1C3",43.6490998,-79.3718809,25,1,24,0.821457486557675
"102","RETAIL STORE (FOOD)","MAN TAK HONG","TORONTO, ON","M5T 3B3","SPADINA AVE","222 SPADINA AVE,TORONTO, ON,M5T 3B3",43.6509933,-79.3977969,25,1,19,3.92266114593899
"103","RETAIL STORE (FOOD)","ZHI FONG TRADING COMPANY","TORONTO, ON","M5T 2K1","KENSINGTON AVE","46 KENSINGTON AVE,TORONTO, ON,M5T 2K1",43.65393,-79.400504,25,1,22,0.704250922384572
"104","RETAIL STORE (FOOD)","WHOLE FOODS MARKET","TORONTO, ON","M5R 3R9","AVENUE RD","87 AVENUE RD,TORONTO, ON,M5R 3R9",43.6719125,-79.395151,25,1,25,1.10979349068822
"105","RETAIL STORE (FOOD)","WHITEHOUSE MEATS","TORONTO, ON","M5E 1C3","FRONT ST E","93 FRONT ST E,TORONTO, ON,M5E 1C3",43.649213,-79.371735,25,1,29,1.36923532928796
"106","RETAIL STORE (FOOD)","BELLAIR COFFEE PLUS","TORONTO, ON","M5R 2A7","BAY ST","1240 BAY ST,TORONTO, ON,M5R 2A7",43.6703246,-79.3903555,25,1,21,3.1092775685895
"107","RETAIL STORE (FOOD)","MAIN DRUG MART","TORONTO, ON","M5A 4P5","THE ESPLANADE","140 THE ESPLANADE,TORONTO, ON,M5A 4P5",43.6485714,-79.3701379,25,1,30,1.01658516382123
"108","RETAIL STORE (FOOD)","WHOLE HEALTH","TORONTO, ON","M5G 2C8","BAY ST","777 BAY ST,TORONTO, ON,M5G 2C8",43.6597907,-79.3849782,25,1,28,0.988793550948513
"109","RETAIL STORE (FOOD)","CHA YI CHINESE HERBAL ACUPUNCTURE CENTRE","TORONTO, ON","M5T 3B3","SPADINA AVE","222 SPADINA AVE,TORONTO, ON,M5T 3B3",43.6509933,-79.3977969,25,1,33,1.01904251329125
"110","RETAIL STORE (FOOD)","YUE TAK TONG GINSENG AND CHINESE HERBS INC","TORONTO, ON","M5T 3B3","SPADINA AVE","222 SPADINA AVE,TORONTO, ON,M5T 3B3",43.6509933,-79.3977969,25,1,24,0.282405593898147
"111","RETAIL STORE (FOOD)","THE BAGEL HOUSE","TORONTO, ON","M5M 3Y6","AVENUE RD","1722 AVENUE RD,TORONTO, ON,M5M 3Y6",43.7282924,-79.4182381,25,1,18,0.465850742533803
"112","RETAIL STORE (FOOD)","MARKIE PHARMACY","TORONTO, ON","M5R 3K4","BAY ST","1235 BAY ST,TORONTO, ON,M5R 3K4",43.6709531,-79.3897541,25,1,16,0.0335267258886872
"113","RETAIL STORE (FOOD)","KUAN SHIH YIN VEGETARIAN INC","TORONTO, ON","M5T 2L6","AUGUSTA AVE","192 AUGUSTA AVE,TORONTO, ON,M5T 2L6",43.6543703,-79.4021709,25,1,26,0.0755669804092723
"114","RETAIL STORE (FOOD)","GIFT WORKS","TORONTO, ON","M5E 1C2","FRONT ST E","95 FRONT ST E,TORONTO, ON,M5E 1C2",43.6491228,-79.3718086,25,1,23,1.21726682126046
"115","RETAIL STORE (FOOD)","LA BOUCHERIE FINE MEATS","TORONTO, ON","M5E 1C2","FRONT ST E","95 FRONT ST E,TORONTO, ON,M5E 1C2",43.6491228,-79.3718086,25,1,24,0.177867217455059
"116","RETAIL STORE (FOOD)","UKRAINIAN STORE DNISTER","TORONTO, ON","M5E 1C3","FRONT ST E","93 FRONT ST E,TORONTO, ON,M5E 1C3",43.649213,-79.371735,25,1,20,0.210979638621211
"117","RETAIL STORE (FOOD)","DILISO'S FINE MEATS","TORONTO, ON","M5E 1C4","FRONT ST E","91 FRONT ST E,TORONTO, ON,M5E 1C4",43.649111,-79.37197,25,1,28,0.112972507253289
"118","RETAIL STORE (FOOD)","THE EPICURE SHOP","TORONTO, ON","M5A 3A3","PARLIAMENT ST","473 PARLIAMENT ST,TORONTO, ON,M5A 3A3",43.6640854,-79.3677023,25,1,26,0.00407460126767427
"119","RETAIL STORE (FOOD)","INDIGO","TORONTO, ON","M5B 2H1","YONGE ST","220 YONGE ST,TORONTO, ON,M5B 2H1",43.6541457,-79.3807927664679,25,1,35,0.104101654607803
"120","RETAIL STORE (FOOD)","CHRIS' CHEESE-MONGERS","TORONTO, ON","M5E 1C3","FRONT ST E","93 FRONT ST E,TORONTO, ON,M5E 1C3",43.649213,-79.371735,25,1,24,0.508140446618199
"121","RETAIL STORE (FOOD)","EVERYDAY GOURMET","TORONTO, ON","M5E 1C2","FRONT ST E","91 FRONT ST E,TORONTO, ON,M5E 1C2",43.649111,-79.37197,25,1,27,0.550954369828105
"122","RETAIL STORE (FOOD)","AVENUE SEAFOOD","TORONTO, ON","M5M 3Y8","AVENUE RD","1751 AVENUE RD,TORONTO, ON,M5M 3Y8",43.7290943666667,-79.4181538222222,25,1,27,3.63804530907623
"123","RETAIL STORE (FOOD)","PRESS INTERNATIONAL MAGAZINE STORE","TORONTO, ON","M5S 1Y5","BLOOR ST W","537 BLOOR ST W,TORONTO, ON,M5S 1Y5",43.6653197,-79.4097711,25,1,15,0.174658423755318
"124","RETAIL STORE (FOOD)","MIMUCHAS PLACE","TORONTO, ON","M5H 2L2","RICHMOND ST W","145 RICHMOND ST W,TORONTO, ON,M5H 2L2",43.64993865,-79.3853803728614,25,1,25,2.23872206161234
"125","RETAIL STORE (FOOD)","NUTCRACKER SWEET","TORONTO, ON","M5H 3Y2","KING ST W","40 KING ST W,TORONTO, ON,M5H 3Y2",43.64949675,-79.3795651438561,25,1,28,0.22777732508257
"126","RETAIL STORE (FOOD)","PHIPPS BAKERY CAFE","TORONTO, ON","M5N 1A2","EGLINTON AVE W","420 EGLINTON AVE W,TORONTO, ON,M5N 1A2",43.7041903,-79.4111038,25,1,33,0.147256019059569
"127","RETAIL STORE (FOOD)","L & Y TRADINGS","TORONTO, ON","M5T 3B3","SPADINA AVE","222 SPADINA AVE,TORONTO, ON,M5T 3B3",43.6509933,-79.3977969,25,1,20,0.32810505758971
"128","RETAIL STORE (FOOD)","18 SMOKE SHOP & VARIETY","TORONTO, ON","M5T 3B3","SPADINA AVE","222 SPADINA AVE,TORONTO, ON,M5T 3B3",43.6509933,-79.3977969,25,1,28,0.72856780037493
"129","RETAIL STORE (FOOD)","SEGOVIA MEAT MARKET","TORONTO, ON","M5T 2L6","AUGUSTA AVE","218 AUGUSTA AVE,TORONTO, ON,M5T 2L6",43.6548164,-79.4022963333333,25,1,29,2.24432988811879
"130","RETAIL STORE (FOOD)","DOLLARAMA","TORONTO, ON","M5G 2C8","BAY ST","777 BAY ST,TORONTO, ON,M5G 2C8",43.6597907,-79.3849782,25,1,31,0.323121487628669
"131","RETAIL STORE (FOOD)","MARKET PLACE","TORONTO, ON","M5A 1E3","FRONT ST E","129 FRONT ST E,TORONTO, ON,M5A 1E3",43.649836,-79.3698037,25,1,24,2.00302606998923
"132","RETAIL STORE (FOOD)","ST LAWRENCE JUICE BAR","TORONTO, ON","M5E 1C3","FRONT ST E","93 FRONT ST E,TORONTO, ON,M5E 1C3",43.649213,-79.371735,25,1,31,1.45664214520695
"133","RETAIL STORE (FOOD)","J & S CONVENIENCE","TORONTO, ON","M5A 2K6","CARLTON ST","184 CARLTON ST,TORONTO, ON,M5A 2K6",43.6635001666667,-79.3723650833333,25,1,22,4.57797725846
"134","RETAIL STORE (FOOD)","RABBA FINE FOODS","TORONTO, ON","M5J 1B5","QUEENS QUAY W","252 QUEENS QUAY W,TORONTO, ON,M5J 1B5",43.639245,-79.385199,25,1,21,1.9795142702169
"135","RETAIL STORE (FOOD)","GREENDALE DRUGS","TORONTO, ON","M5A 2K1","CARLTON ST","152 CARLTON ST,TORONTO, ON,M5A 2K1",43.662984,-79.374423,25,1,30,0.586679955478758
"136","RETAIL STORE (FOOD)","FRESH AND WILD FOOD MARKET","TORONTO, ON","M5V 3P8","SPADINA AVE","69 SPADINA AVE,TORONTO, ON,M5V 3P8",43.6456586,-79.3947848,25,1,29,1.16532343621821
"137","RETAIL STORE (FOOD)","GERRARD CONVENIENCE","TORONTO, ON","M5A 2G1","GERRARD ST E","247 GERRARD ST E,TORONTO, ON,M5A 2G1",43.6617678,-79.3692029,25,1,21,2.47831507057199
"138","RETAIL STORE (FOOD)","STEVEN'S GROCERY","TORONTO, ON","M5R 3G6","BATHURST ST","990 BATHURST ST,TORONTO, ON,M5R 3G6",43.670183,-79.4133745,25,1,34,0.173833994194865
"139","RETAIL STORE (FOOD)","HUDSON'S BAY","TORONTO, ON","M5C 2L7","YONGE ST","176 YONGE ST,TORONTO, ON,M5C 2L7",43.6516516,-79.3807192,25,1,29,0.834757946379495
"140","RETAIL STORE (FOOD)","JENNY'S CONVENIENCE","TORONTO, ON","M5A 3A1","PARLIAMENT ST","401 PARLIAMENT ST,TORONTO, ON,M5A 3A1",43.6621099,-79.3668763,25,1,21,0.237583158537745
"141","RETAIL STORE (FOOD)","MARHABA SUPERMARKET","TORONTO, ON","M5A 2Z7","PARLIAMENT ST","324 PARLIAMENT ST,TORONTO, ON,M5A 2Z7",43.6596823,-79.3662914,25,1,34,0.9466906543401
"142","RETAIL STORE (FOOD)","INTERNATIONAL NEWS","TORONTO, ON","M5J 2Y5","QUEENS QUAY W","208 QUEENS QUAY W,TORONTO, ON,M5J 2Y5",43.6399699,-79.3812666,25,1,31,0.903508174191129
"143","RETAIL STORE (FOOD)","HONEY WORLD","TORONTO, ON","M5E 1C3","FRONT ST E","93 FRONT ST E,TORONTO, ON,M5E 1C3",43.649213,-79.371735,25,1,13,0.520353249739856
"144","RETAIL STORE (FOOD)","ALEX FARM PRODUCTS","TORONTO, ON","M5E 1C3","FRONT ST E","93 FRONT ST E,TORONTO, ON,M5E 1C3",43.649213,-79.371735,25,1,24,0.0773324539230939
"145","RETAIL STORE (FOOD)","TORONTO METROPOLITAN UNIVERSITY","TORONTO, ON","M5G 2C3","DUNDAS ST W","55 DUNDAS ST W,TORONTO, ON,M5G 2C3",43.65574659375,-79.3831603125,25,1,18,0.0867051386525899
"146","RETAIL STORE (FOOD)","HARBOUR FRONT FOODS","TORONTO, ON","M5E 1C2","FRONT ST E","95 FRONT ST E,TORONTO, ON,M5E 1C2",43.6491228,-79.3718086,25,1,30,1.44131691043781
"147","RETAIL STORE (FOOD)","DINO'S NOFRILLS","TORONTO, ON","M5M 3Z3","AVENUE RD","1811 AVENUE RD,TORONTO, ON,M5M 3Z3",43.7306855,-79.4185715354546,25,1,23,3.70514563361423
"148","RETAIL STORE (FOOD)","THE GREEN POST","TORONTO, ON","M5T 2L4","AUGUSTA AVE","221 AUGUSTA AVE,TORONTO, ON,M5T 2L4",43.6542741526316,-79.4017468,25,1,17,0.528130860067904
"149","RETAIL STORE (FOOD)","GATEWAY NEWSTANDS","TORONTO, ON","M5X 1C9","KING ST W","100 KING ST W,TORONTO, ON,M5X 1C9",43.6487681,-79.3816917928303,25,1,21,0.0468330348431054
"150","RETAIL STORE (FOOD)","EVE'S TEMPTATIONS","TORONTO, ON","M5E 1C2","FRONT ST E","95 FRONT ST E,TORONTO, ON,M5E 1C2",43.6491228,-79.3718086,25,1,27,0.184711148044826
"151","RETAIL STORE (FOOD)","DAI KUANG WAH HERB MARKET","TORONTO, ON","M5T 3A5","SPADINA AVE","280 SPADINA AVE,TORONTO, ON,M5T 3A5",43.6526523,-79.3985239,25,1,30,1.86531298040392
"152","RETAIL STORE (FOOD)","METRO #062","TORONTO, ON","M5E 1T4","FRONT ST E","80 FRONT ST E,TORONTO, ON,M5E 1T4",43.649526,-79.3724807,25,1,25,0.621562929358333
"153","RETAIL STORE (FOOD)","METRO #063","TORONTO, ON","M5B 2H4","YONGE ST","444 YONGE ST,TORONTO, ON,M5B 2H4",43.66056235,-79.3834490593208,25,1,25,0.503957242704928
"154","RETAIL STORE (FOOD)","CROSSTOWN MART","TORONTO, ON","M5N 1B4","EGLINTON AVE W","524 EGLINTON AVE W,TORONTO, ON,M5N 1B4",43.7035589,-79.4140778,25,1,22,0.224569239361793
"155","RETAIL STORE (FOOD)","HOMESENSE STORE (#71)","TORONTO, ON","M5B 1M4","YONGE ST","195 YONGE ST,TORONTO, ON,M5B 1M4",43.6531966,-79.3794568,25,1,40,0.497991775162518
"156","RETAIL STORE (FOOD)","WINNERS (STORE#339)","TORONTO, ON","M5B 2H4","YONGE ST","444 YONGE ST,TORONTO, ON,M5B 2H4",43.66056235,-79.3834490593208,25,1,30,0.451190475840122
"157","RETAIL STORE (FOOD)","WINNERS / HOMESENSE (STORE#379)","TORONTO, ON","M5S 2W7","BLOOR ST W","110 BLOOR ST W,TORONTO, ON,M5S 2W7",43.6696732,-79.392085,25,1,17,0.767311349340501
"158","RETAIL STORE (FOOD)","WINNERS (STORE #399)","TORONTO, ON","M5E 1B3","FRONT ST E","35-45 FRONT ST E,TORONTO, ON,M5E 1B3",43.649504,-79.3713445,25,1,22,0.555000327873328
"159","RETAIL STORE (FOOD)","THE CANADIAN NATURALIST","TORONTO, ON","M5B 2H1","YONGE ST","220 YONGE ST,TORONTO, ON,M5B 2H1",43.6541457,-79.3807927664679,25,1,20,0.674486445728689
"160","RETAIL STORE (FOOD)","WINNERS (STORE #390)","TORONTO, ON","M5H 3Y2","KING ST W","40 KING ST W,TORONTO, ON,M5H 3Y2",43.64949675,-79.3795651438561,25,1,20,1.51814137763324
"161","RETAIL STORE (FOOD)","LONGO'S","TORONTO, ON","M5G 1P7","ELIZABETH ST","111 ELIZABETH ST,TORONTO, ON,M5G 1P7",43.6550352,-79.3847446988724,25,1,20,4.01429784835732
"162","RETAIL STORE (FOOD)","GLOBAL CHEESE SHOPPE","TORONTO, ON","M5T 2K1","KENSINGTON AVE","74-76 KENSINGTON AVE,TORONTO, ON,M5T 2K1",43.6534465,-79.4002002,25,1,20,1.26246558774282
"163","RETAIL STORE (FOOD)","BEST BUY","TORONTO, ON","M5G 2C3","DUNDAS ST W","65 DUNDAS ST W,TORONTO, ON,M5G 2C3",43.6556543,-79.3832132,25,1,29,0.578949515707791
"164","RETAIL STORE (FOOD)","INTERNATIONAL NEWS","TORONTO, ON","M5J 2Z1","YORK ST","25 YORK ST,TORONTO, ON,M5J 2Z1",43.6434729,-79.3809208154655,25,1,38,2.33750979030941
"165","RETAIL STORE (FOOD)","PHIPPS DESSERTS","TORONTO, ON","M3B 2M5","LESLIE ST","1875 LESLIE ST,TORONTO, ON,M3B 2M5",43.7562926,-79.3591239,25,1,28,2.12024516928576
"166","RETAIL STORE (FOOD)","SAM'S FOOD STORE","TORONTO, ON","M5T 1S2","COLLEGE ST","339 COLLEGE ST,TORONTO, ON,M5T 1S2",43.6573049,-79.4026045,25,1,23,0.0787690267898142
"167","RETAIL STORE (FOOD)","BOOSTER JUICE","TORONTO, ON","M5J 2V5","YORK ST","25 YORK ST,TORONTO, ON,M5J 2V5",43.64337215,-79.3812452198061,25,1,16,0.616546833887696
"168","RETAIL STORE (FOOD)","LONGO BROTHERS FRUIT MARKETS INC","TORONTO, ON","M5J 0A3","YORK ST","15 YORK ST,TORONTO, ON,M5J 0A3",43.6424718,-79.380761,25,1,16,0.315935667138547
"169","RETAIL STORE (FOOD)","SHOPPERS DRUG MART","TORONTO, ON","M5K 1A1","WELLINGTON ST W","66 WELLINGTON ST W,TORONTO, ON,M5K 1A1",43.6472606,-79.3814529,25,1,32,0.230656618718058
"170","RETAIL STORE (FOOD)","Y&Z CONVENIENCE STORE","TORONTO, ON","M5C 2T6","ADELAIDE ST E","20 ADELAIDE ST E,TORONTO, ON,M5C 2T6",43.6507743,-79.3774171,25,1,25,0.375476396176964
"171","RETAIL STORE (FOOD)","MANOTAS ORGANICS AND FINE FOODS","TORONTO, ON","M5E 1C3","FRONT ST E","91 FRONT ST E,TORONTO, ON,M5E 1C3",43.6490998,-79.3718809,25,1,24,2.17852407316384
"172","RETAIL STORE (FOOD)","AXIS AUGUSTA CENTRAL PHARMACY","TORONTO, ON","M5T 1S6","COLLEGE ST","360 COLLEGE ST,TORONTO, ON,M5T 1S6",43.65737455,-79.4044313076212,25,1,24,0.565724255982786
"173","RETAIL STORE (FOOD)","UNIVERSITY OF TORONTO BOOKSTORE","TORONTO, ON","M5T 3A1","COLLEGE ST","214 COLLEGE ST,TORONTO, ON,M5T 3A1",43.6588244,-79.3969597,25,1,27,6.54537064556203
"174","RETAIL STORE (FOOD)","SOUP NUTSY CANADA","TORONTO, ON","M5H 1T1","ADELAIDE ST W","120 ADELAIDE ST W,TORONTO, ON,M5H 1T1",43.6498399,-79.3829534,25,1,28,2.51881033355806
"175","RETAIL STORE (FOOD)","BASIC DOLLAR PLUS","TORONTO, ON","M5A 3A1","PARLIAMENT ST","405 PARLIAMENT ST,TORONTO, ON,M5A 3A1",43.662256,-79.366861,25,1,24,0.32145890743396
"176","RETAIL STORE (FOOD)","SARKAR GROCERIES","TORONTO, ON","M5A 3A1","PARLIAMENT ST","423 PARLIAMENT ST,TORONTO, ON,M5A 3A1",43.6625887,-79.3670571,25,1,41,0.34413767356375
"177","RETAIL STORE (FOOD)","SECOND CUP TORONTO WESTERN HOSPITAL","TORONTO, ON","M5T 2S8","BATHURST ST","399 BATHURST ST,TORONTO, ON,M5T 2S8",43.653567,-79.4054960448721,25,1,27,0.35144044866915
"178","RETAIL STORE (FOOD)","SHOPPERS DRUG MART","TORONTO, ON","M5S 1T8","BLOOR ST W","236 BLOOR ST W,TORONTO, ON,M5S 1T8",43.6683115,-79.3968395,25,1,25,1.5507218759193
"179","RETAIL STORE (FOOD)","BAKERY ON THE GO","TORONTO, ON","M5R 3G2","BATHURST ST","819 BATHURST ST,TORONTO, ON,M5R 3G2",43.666291,-79.41166,25,1,27,0.0825606448616838
"180","RETAIL STORE (FOOD)","HILTON GARDEN INN, TORONTO DOWNTOWN","TORONTO, ON","M5V 2G5","PETER ST","92 PETER ST,TORONTO, ON,M5V 2G5",43.64696975,-79.3932080515356,25,1,26,0.627791519742459
"181","RETAIL STORE (FOOD)","CARNICERO'S","TORONTO, ON","M5E 1C3","FRONT ST E","93 FRONT ST E,TORONTO, ON,M5E 1C3",43.649213,-79.371735,25,1,26,0.299352606292814
"182","RETAIL STORE (FOOD)","WINNERS #423","TORONTO, ON","M5V 2B7","QUEEN ST W","585 QUEEN ST W,TORONTO, ON,M5V 2B7",43.6474912,-79.4015723,25,1,32,0.697114094118488
"183","RETAIL STORE (FOOD)","LOBLAWS","TORONTO, ON","M5V 2B7","QUEEN ST W","585 QUEEN ST W,TORONTO, ON,M5V 2B7",43.6474912,-79.4015723,25,1,26,3.12710503471975
"184","RETAIL STORE (FOOD)","ELM BASKET","TORONTO, ON","M5G 1H1","ELM ST","23 ELM ST,TORONTO, ON,M5G 1H1",43.6574658,-79.3828019,25,1,32,2.90281776322012
"185","RETAIL STORE (FOOD)","T & T SUPERMARKET","TORONTO, ON","M5B 1J2","CARLTON ST","60 CARLTON ST,TORONTO, ON,M5B 1J2",43.6620397,-79.3801385,25,1,27,0.919981697532249
"186","RETAIL STORE (FOOD)","DOLLARAMA","TORONTO, ON","M5V 2J6","SPADINA AVE","96 SPADINA AVE,TORONTO, ON,M5V 2J6",43.6464374,-79.3958689,25,1,28,0.320147356484085
"187","RETAIL STORE (FOOD)","KARINE'S","TORONTO, ON","M5T 3K5","MCCAUL ST","109 MCCAUL ST,TORONTO, ON,M5T 3K5",43.6536772,-79.3908145,25,1,29,6.49683116152327
"188","RETAIL STORE (FOOD)","KERNALS","TORONTO, ON","M5B 2H6","YONGE ST","218 YONGE ST,TORONTO, ON,M5B 2H6",43.6538619,-79.3804695,25,1,25,1.79738151181699
"189","RETAIL STORE (FOOD)","TORONTO METROPOLITAN UNIVERSITY","TORONTO, ON","M5B 2K3","VICTORIA ST","350 VICTORIA ST,TORONTO, ON,M5B 2K3",43.65786895,-79.3805343410168,25,1,32,0.67309754807502
"190","RETAIL STORE (FOOD)","SUBWAY RESTAURANT","TORONTO, ON","M5X 1E2","KING ST W","130 KING ST W,TORONTO, ON,M5X 1E2",43.64841795,-79.3832424528398,25,1,29,2.74431704903457
"191","RETAIL STORE (FOOD)","KIN KIN BUBBLE TEA COMPANY","TORONTO, ON","M5G 2C2","BAY ST","595 BAY ST,TORONTO, ON,M5G 2C2",43.656009,-79.383069,25,1,18,1.72788372979205
"192","RETAIL STORE (FOOD)","VEDA HEALTHY INDIAN TAKEOUT","TORONTO, ON","M5S 3G4","KING'S COLLEGE RD","10 KING'S COLLEGE RD,TORONTO, ON,M5S 3G4",43.6599999,-79.3952693,25,1,25,0.0467270212247968
"193","RETAIL STORE (FOOD)","CHAPMAN'S SPECIALTY FOODS","TORONTO, ON","M3B 2M5","LESLIE ST","1875 LESLIE ST,TORONTO, ON,M3B 2M5",43.7562926,-79.3591239,25,1,25,1.41623475021663
"194","RETAIL STORE (FOOD)","LOBLAWS","TORONTO, ON","M5E 1Z2","LOWER JARVIS ST","10 LOWER JARVIS ST,TORONTO, ON,M5E 1Z2",43.6438465,-79.3698452,25,1,26,0.100417712703347
"195","RETAIL STORE (FOOD)","LOBLAWS","TORONTO, ON","M5B 1S1","YONGE ST","3501 YONGE ST,TORONTO, ON,M5B 1S1",43.7386047,-79.4023179,25,1,38,0.190047182370335
"196","RETAIL STORE (FOOD)","INDIAN ROTI HOUSE","TORONTO, ON","M5J 2N8","QUEENS QUAY W","256 QUEENS QUAY W,TORONTO, ON,M5J 2N8",43.6392183333333,-79.3853623333333,25,1,20,0.0881967134773731
"197","RETAIL STORE (FOOD)","SUN WA BOOKSTORE","TORONTO, ON","M5T 3A5","SPADINA AVE","280 SPADINA AVE,TORONTO, ON,M5T 3A5",43.6526523,-79.3985239,25,1,28,0.974071508231473
"198","RETAIL STORE (FOOD)","BENTO SUSHI","TORONTO, ON","M5E 1T4","FRONT ST E","80 FRONT ST E,TORONTO, ON,M5E 1T4",43.649526,-79.3724807,25,1,25,0.215619901195168
"199","RETAIL STORE (FOOD)","BENTO SUSHI","TORONTO, ON","M5J 0A3","YORK ST","15 YORK ST,TORONTO, ON,M5J 0A3",43.6424718,-79.380761,25,1,25,0.730374627251457
"200","RETAIL STORE (FOOD)","BENTO SUSHI","TORONTO, ON","M5G 1P7","ELIZABETH ST","111 ELIZABETH ST,TORONTO, ON,M5G 1P7",43.6550352,-79.3847446988724,25,1,27,2.37336220020864
"201","RETAIL STORE (FOOD)","CARLOS HOUSE OF SPICE","TORONTO, ON","M5T 2L6","AUGUSTA AVE","190 AUGUSTA AVE,TORONTO, ON,M5T 2L6",43.6541465,-79.4020178,25,1,22,3.39828226223433
"202","RETAIL STORE (FOOD)","EDIBLE ARRANGEMENTS","TORONTO, ON","M5C 1K9","ADELAIDE ST E","140 ADELAIDE ST E,TORONTO, ON,M5C 1K9",43.6517867,-79.3727306,25,1,34,0.656939431559294
"203","RETAIL STORE (FOOD)","THAI BRIGHT","TORONTO, ON","M5T 3K5","MCCAUL ST","109 MCCAUL ST,TORONTO, ON,M5T 3K5",43.6536772,-79.3908145,25,1,27,0.102596811484545
"204","RETAIL STORE (FOOD)","AREN'T WE SWEET","TORONTO, ON","M5E 1C2","FRONT ST E","95 FRONT ST E,TORONTO, ON,M5E 1C2",43.6491228,-79.3718086,25,1,24,1.06872484083743
"205","RETAIL STORE (FOOD)","BENTO SUSHI","TORONTO, ON","M5V 2B7","QUEEN ST W","585 QUEEN ST W,TORONTO, ON,M5V 2B7",43.6474912,-79.4015723,25,1,23,1.78725474319401
"206","RETAIL STORE (FOOD)","BUSY BEE KING MART","TORONTO, ON","M5V 1M9","KING ST W","677 KING ST W,TORONTO, ON,M5V 1M9",43.6436755,-79.4032587,25,1,22,1.01899975226051
"207","RETAIL STORE (FOOD)","FRESH HARVEST FINE FOODS","TORONTO, ON","M5N 1B4","EGLINTON AVE W","546 EGLINTON AVE W,TORONTO, ON,M5N 1B4",43.7033866,-79.4148359,25,1,26,0.248446487355977
"208","RETAIL STORE (FOOD)","CAVIAR DIRECT","TORONTO, ON","M5E 1C3","FRONT ST E","93 FRONT ST E,TORONTO, ON,M5E 1C3",43.649213,-79.371735,25,1,35,0.377308594994247
"209","RETAIL STORE (FOOD)","KIMKOS PINKBERRY","TORONTO, ON","M5J 2S1","BAY ST","161 BAY ST,TORONTO, ON,M5J 2S1",43.6469242,-79.3786575,25,1,19,0.419972279109061
"210","RETAIL STORE (FOOD)","KANTO BY TITA FLIPS","TORONTO, ON","M5T 2W6","DUNDAS ST W","707 DUNDAS ST W,TORONTO, ON,M5T 2W6",43.6519938,-79.4048143,25,1,18,0.269855182125357
"211","RETAIL STORE (FOOD)","DOLLARAMA","TORONTO, ON","M5S 1Y3","BLOOR ST W","512 BLOOR ST W,TORONTO, ON,M5S 1Y3",43.6653846,-79.4106267,25,1,34,0.120132899377495
"212","RETAIL STORE (FOOD)","THE EXCHANGE","TORONTO, ON","M5S 3E6","ST GEORGE ST","105 ST GEORGE ST,TORONTO, ON,M5S 3E6",43.6652923,-79.3984012435221,25,1,32,0.178422920423195
"213","RETAIL STORE (FOOD)","CAROUSEL BAKERY","TORONTO, ON","M5E 1C3","FRONT ST E","93 FRONT ST E,TORONTO, ON,M5E 1C3",43.649213,-79.371735,25,1,24,0.544168676249683
"214","RETAIL STORE (FOOD)","MARSHALLS","TORONTO, ON","M5B 1S8","YONGE ST","382 YONGE ST,TORONTO, ON,M5B 1S8",43.6590065,-79.3833435,25,1,27,3.3257062731493
"215","RETAIL STORE (FOOD)","FRUITEAO","TORONTO, ON","M5T 3K5","MCCAUL ST","109 MCCAUL ST,TORONTO, ON,M5T 3K5",43.6536772,-79.3908145,25,1,28,1.07474018815429
"216","RETAIL STORE (FOOD)","FORNO CULTURA","TORONTO, ON","M5V 1M5","KING ST W","609 KING ST W,TORONTO, ON,M5V 1M5",43.6441768,-79.400724,25,1,20,0.875463803256762
"217","RETAIL STORE (FOOD)","GINOS PIZZA & WING MACHINE","TORONTO, ON","M5T 2S8","BATHURST ST","399 BATHURST ST,TORONTO, ON,M5T 2S8",43.653567,-79.4054960448721,25,1,23,2.14491998577926
"218","RETAIL STORE (FOOD)","DOLLARAMA","TORONTO, ON","M5V 1M3","KING ST W","590 KING ST W,TORONTO, ON,M5V 1M3",43.6446536,-79.3997578,25,1,25,0.300330143421888
"219","RETAIL STORE (FOOD)","7-ELEVEN","TORONTO, ON","M5S 3A5","BAY ST","1033 BAY ST,TORONTO, ON,M5S 3A5",43.6659781,-79.3875905,25,1,16,1.31168484404207
"220","RETAIL STORE (FOOD)","OLYMPIC FOOD & CHEESE MART LTD","TORONTO, ON","M5E 1C3","FRONT ST E","93 FRONT ST E,TORONTO, ON,M5E 1C3",43.649213,-79.371735,25,1,28,0.193548098063382
"221","RETAIL STORE (FOOD)","7-ELEVEN","TORONTO, ON","M5H 2W9","BAY ST","372 BAY ST,TORONTO, ON,M5H 2W9",43.6509578,-79.3815175157483,25,1,24,0.795660831561151
"222","RETAIL STORE (FOOD)","LINDT & SPRUNGLI (CANADA)","TORONTO, ON","M5X 1A9","KING ST W","130 KING ST W,TORONTO, ON,M5X 1A9",43.64841795,-79.3832424528398,25,1,24,0.0789257018870776
"223","RETAIL STORE (FOOD)","EAT CANTEEN","TORONTO, ON","M5K 1A1","WELLINGTON ST W","100 WELLINGTON ST W,TORONTO, ON,M5K 1A1",43.647349,-79.3826485,25,1,23,0.0463618580251932
"224","RETAIL STORE (FOOD)","HANG HING HONG FOODS","TORONTO, ON","M5T 1G7","DUNDAS ST W","430 DUNDAS ST W,TORONTO, ON,M5T 1G7",43.653586,-79.395415,25,1,17,0.125052347779274
"225","RETAIL STORE (FOOD)","99 PHARMACY","TORONTO, ON","M5T 1G7","DUNDAS ST W","436 DUNDAS ST W,TORONTO, ON,M5T 1G7",43.65351,-79.3957876666667,25,1,27,0.634168060030788
"226","RETAIL STORE (FOOD)","7-ELEVEN STORE #36976H","TORONTO, ON","M5B 1L2","CARLTON ST","1 CARLTON ST,TORONTO, ON,M5B 1L2",43.6612168,-79.3828093,25,1,29,0.356988688997315
"227","RETAIL STORE (FOOD)","BBQ EXPRESS","TORONTO, ON","M5R 2A7","BAY ST","1240 BAY ST,TORONTO, ON,M5R 2A7",43.6703246,-79.3903555,25,1,23,0.239875634200871
"228","RETAIL STORE (FOOD)","M & Q CONVENIENCE","TORONTO, ON","M5B 1S8","YONGE ST","384 YONGE ST,TORONTO, ON,M5B 1S8",43.65929935,-79.3830127214071,25,1,21,0.253014118410647
"229","RETAIL STORE (FOOD)","DOLLARAMA #874","TORONTO, ON","M5A 3A1","PARLIAMENT ST","425 PARLIAMENT ST,TORONTO, ON,M5A 3A1",43.6626675,-79.3670976,25,1,27,0.296358850318938
"230","RETAIL STORE (FOOD)","SOUP NUTSY","TORONTO, ON","M5V 3C7","WELLINGTON ST W","200 WELLINGTON ST W,TORONTO, ON,M5V 3C7",43.645944,-79.387904,25,1,27,1.48461954659762
"231","RETAIL STORE (FOOD)","HARD HAT CAFE","TORONTO, ON","M5S 3G4","KING'S COLLEGE RD","10 KING'S COLLEGE RD,TORONTO, ON,M5S 3G4",43.6599999,-79.3952693,25,1,20,0.888107732898433
"232","RETAIL STORE (FOOD)","SHOPPERS DRUG MART #1441","TORONTO, ON","M5H 2R2","BAY ST","333 BAY ST,TORONTO, ON,M5H 2R2",43.6502975,-79.3804773504838,25,1,28,0.158612203877984
"233","RETAIL STORE (FOOD)","BAGEL & CO","TORONTO, ON","M5H 1T1","ADELAIDE ST W","120 ADELAIDE ST W,TORONTO, ON,M5H 1T1",43.6498399,-79.3829534,25,1,26,0.689020675607026
"234","RETAIL STORE (FOOD)","SOMA CHOCOLATE","TORONTO, ON","M5A 3C4","TANK HOUSE LANE","32 TANK HOUSE LANE,TORONTO, ON,M5A 3C4",43.6507062,-79.3582501,25,1,16,0.0687353829095731
"235","RETAIL STORE (FOOD)","YOUNG CENTRE CAFE","TORONTO, ON","M5A 3C4","TANK HOUSE LANE","50 TANK HOUSE LANE,TORONTO, ON,M5A 3C4",43.6508743,-79.3576622,25,1,21,1.66455283303925
"236","RETAIL STORE (FOOD)","TIM HORTONS","TORONTO, ON","M5B 2G9","DUNDAS ST E","10 DUNDAS ST E,TORONTO, ON,M5B 2G9",43.6570352,-79.3804595895349,25,1,28,0.513714381027967
"237","RETAIL STORE (FOOD)","GATEWAY NEWSTANDS","TORONTO, ON","M5J 2T3","BAY ST","181 BAY ST,TORONTO, ON,M5J 2T3",43.6465062,-79.3786735,25,1,23,0.179807273861891
"238","RETAIL STORE (FOOD)","ALMOND BUTTERFLY BAKERY","TORONTO, ON","M5S 1G6","HARBORD ST","100 HARBORD ST,TORONTO, ON,M5S 1G6",43.6629196,-79.4034116,25,1,22,0.114442234313242
"239","RETAIL STORE (FOOD)","PARISCO MARKET","TORONTO, ON","M5V 4A2","FORT YORK BLVD","215 FORT YORK BLVD,TORONTO, ON,M5V 4A2",43.63635565,-79.4048107230343,25,1,15,0.300417296562794
"240","RETAIL STORE (FOOD)","T & T SUSHI BAR","TORONTO, ON","M5B 1S1","YONGE ST","3501 YONGE ST,TORONTO, ON,M5B 1S1",43.7386047,-79.4023179,25,1,31,0.451053673401475
"241","RETAIL STORE (FOOD)","VILLAGE'S MINI-MARKET","TORONTO, ON","M5A 4J6","THE ESPLANADE","252 THE ESPLANADE,TORONTO, ON,M5A 4J6",43.649842,-79.364212,25,1,23,2.80880626274233
"242","RETAIL STORE (FOOD)","BUNNER'S","TORONTO, ON","M5T 2M1","AUGUSTA AVE","244 AUGUSTA AVE,TORONTO, ON,M5T 2M1",43.6555183,-79.4026076,25,1,28,1.94507868393304
"243","RETAIL STORE (FOOD)","RUBE'S RICE","TORONTO, ON","M5E 1C2","FRONT ST E","91 FRONT ST E,TORONTO, ON,M5E 1C2",43.649111,-79.37197,25,1,27,0.667220822535455
"244","RETAIL STORE (FOOD)","THE TEN SPOT","TORONTO, ON","M5S 1Y2","BLOOR ST W","497 BLOOR ST W,TORONTO, ON,M5S 1Y2",43.6656908,-79.408015,25,1,24,0.999014539465788
"245","RETAIL STORE (FOOD)","FAST FRESH FOODS LEASING","TORONTO, ON","M5H 1T1","ADELAIDE ST W","120 ADELAIDE ST W,TORONTO, ON,M5H 1T1",43.6498399,-79.3829534,25,1,27,0.464492209721357
"246","RETAIL STORE (FOOD)","GATEWAY NEWSTANDS","TORONTO, ON","M5G 1Z4","GERRARD ST W","33 GERRARD ST W,TORONTO, ON,M5G 1Z4",43.6585684,-79.3837319,25,1,25,0.31583907129243
"247","RETAIL STORE (FOOD)","SHANGHAI 360","TORONTO, ON","M5J 2N8","BAY ST","20 BAY ST,TORONTO, ON,M5J 2N8",43.6416849,-79.3778218,25,1,30,0.324069242458791
"248","RETAIL STORE (FOOD)","KUPFERT & KIM","TORONTO, ON","M5J 2T3","BAY ST","181 BAY ST,TORONTO, ON,M5J 2T3",43.6465062,-79.3786735,25,1,29,0.334847840014845
"249","RETAIL STORE (FOOD)","MUCHO BURRITO","TORONTO, ON","M5B 2H1","YONGE ST","220 YONGE ST,TORONTO, ON,M5B 2H1",43.6541457,-79.3807927664679,25,1,33,3.28103105707054
"250","RETAIL STORE (FOOD)","COLLEGE STREET CAFE","TORONTO, ON","M5T 1R8","COLLEGE ST","250 COLLEGE ST,TORONTO, ON,M5T 1R8",43.6590669,-79.3994125995288,25,1,18,2.12472329389701
"251","RETAIL STORE (FOOD)","GUMTI CONVENIENCE","TORONTO, ON","M5V 2L1","SPADINA AVE","119 SPADINA AVE,TORONTO, ON,M5V 2L1",43.6471011,-79.3952288525066,25,1,30,3.4829282814399
"252","RETAIL STORE (FOOD)","THE ED MIRVISH THEATRE","TORONTO, ON","M5B 1V8","VICTORIA ST","244 VICTORIA ST,TORONTO, ON,M5B 1V8",43.65522095,-79.379498080273,25,1,26,0.219847247577045
"253","RETAIL STORE (FOOD)","CLARA'S TEA","TORONTO, ON","M5B 1S8","YONGE ST","384 YONGE ST,TORONTO, ON,M5B 1S8",43.65929935,-79.3830127214071,25,1,38,1.09764532017231
"254","RETAIL STORE (FOOD)","BULK BARN","TORONTO, ON","M5S 1Y2","BLOOR ST W","503 BLOOR ST W,TORONTO, ON,M5S 1Y2",43.6655691,-79.4082588,25,1,19,0.0911142500117421
"255","RETAIL STORE (FOOD)","TIM HORTON'S","TORONTO, ON","M5H 1T1","ADELAIDE ST W","120 ADELAIDE ST W,TORONTO, ON,M5H 1T1",43.6498399,-79.3829534,25,1,32,0.219102106522769
"256","RETAIL STORE (FOOD)","STARBUCKS COFFEE #22866","TORONTO, ON","M5S 2W7","BLOOR ST W","110 BLOOR ST W,TORONTO, ON,M5S 2W7",43.6696732,-79.392085,25,1,21,0.861624007071269
"257","RETAIL STORE (FOOD)","A & W","TORONTO, ON","M5J 2N8","BAY ST","20 BAY ST,TORONTO, ON,M5J 2N8",43.6416849,-79.3778218,25,1,16,0.0516998474486172
"258","RETAIL STORE (FOOD)","STUDENT CENTRE - STARBUCKS","TORONTO, ON","M5B 1S1","YONGE ST","341 YONGE ST,TORONTO, ON,M5B 1S1",43.657657,-79.3810926,25,1,27,1.13713922626795
"259","RETAIL STORE (FOOD)","RUBY THAI","TORONTO, ON","M5X 1B1","KING ST W","100 KING ST W,TORONTO, ON,M5X 1B1",43.6487681,-79.3816917928303,25,1,30,5.94616899955761
"260","RETAIL STORE (FOOD)","KUPFERT & KIM","TORONTO, ON","M5V 3C7","WELLINGTON ST W","200 WELLINGTON ST W,TORONTO, ON,M5V 3C7",43.645944,-79.387904,25,1,20,0.287786284169074
"261","RETAIL STORE (FOOD)","ST LAWRENCE SMOKE & GIFT","TORONTO, ON","M5E 1C3","FRONT ST E","93 FRONT ST E,TORONTO, ON,M5E 1C3",43.649213,-79.371735,25,1,21,0.0687668924219906
"262","RETAIL STORE (FOOD)","SHOPPERS DRUG MART","TORONTO, ON","M5V 2B5","QUEEN ST W","524 QUEEN ST W,TORONTO, ON,M5V 2B5",43.6477524,-79.402265,25,1,28,0.444141323678195
"263","RETAIL STORE (FOOD)","SECOND CUP","TORONTO, ON","M5G 2C8","BAY ST","777 BAY ST,TORONTO, ON,M5G 2C8",43.6597907,-79.3849782,25,1,16,2.38165949086163
"264","RETAIL STORE (FOOD)","TIM HORTONS # 6010","TORONTO, ON","M5X 1B1","KING ST W","100 KING ST W,TORONTO, ON,M5X 1B1",43.6487681,-79.3816917928303,25,1,25,2.48330037096951
"265","RETAIL STORE (FOOD)","Z-TECA GOURMET BURRITOS","TORONTO, ON","M5X 1A9","KING ST W","130 KING ST W,TORONTO, ON,M5X 1A9",43.64841795,-79.3832424528398,25,1,23,0.208086280617863
"266","RETAIL STORE (FOOD)","HAPPY FRUIT BUBBLE TEA","TORONTO, ON","M5B 2G9","DUNDAS ST E","10 DUNDAS ST E,TORONTO, ON,M5B 2G9",43.6570352,-79.3804595895349,25,1,28,2.93992429954891
"267","RETAIL STORE (FOOD)","TTB TRADING CO 2015","TORONTO, ON","M5T 1T1","COLLEGE ST","415 COLLEGE ST,TORONTO, ON,M5T 1T1",43.6564907,-79.4067757,25,1,22,4.11767363863231
"268","RETAIL STORE (FOOD)","T & T SUSHI BAR","TORONTO, ON","M5E 1Z2","LOWER JARVIS ST","10 LOWER JARVIS ST,TORONTO, ON,M5E 1Z2",43.6438465,-79.3698452,25,1,27,0.314508938053724
"269","RETAIL STORE (FOOD)","GATEWAY NEWSTANDS","TORONTO, ON","M5B 2H4","YONGE ST","444 YONGE ST,TORONTO, ON,M5B 2H4",43.66056235,-79.3834490593208,25,1,23,1.4686389247978
"270","RETAIL STORE (FOOD)","THE ORGANIC PRESS","TORONTO, ON","M5T 2M1","AUGUSTA AVE","257 AUGUSTA AVE,TORONTO, ON,M5T 2M1",43.6554314,-79.4022212,25,1,24,2.32655458325956
"271","RETAIL STORE (FOOD)","FRESHII","TORONTO, ON","M5H 3Y2","KING ST W","40 KING ST W,TORONTO, ON,M5H 3Y2",43.64949675,-79.3795651438561,25,1,19,0.996079159858537
"272","RETAIL STORE (FOOD)","ANGEL @ AURA","TORONTO, ON","M5B 1S8","YONGE ST","384 YONGE ST,TORONTO, ON,M5B 1S8",43.65929935,-79.3830127214071,25,1,21,0.0157548375427723
"273","RETAIL STORE (FOOD)","SCHMALTZ APPETIZING","TORONTO, ON","M5R 1V9","DUPONT ST","414 DUPONT ST,TORONTO, ON,M5R 1V9",43.6738788,-79.4117405417354,25,1,27,0.927859301287949
"274","RETAIL STORE (FOOD)","VILLA MADINA","TORONTO, ON","M5J 2R8","BAY ST","10 BAY ST,TORONTO, ON,M5J 2R8",43.6412252,-79.3775798113325,25,1,22,0.47578289732337
"275","RETAIL STORE (FOOD)","GATEWAY NEWSTANDS #491","TORONTO, ON","M5H 3T9","KING ST W","121 KING ST W,TORONTO, ON,M5H 3T9",43.6476852,-79.3829683711884,25,1,32,1.18651766418935
"276","RETAIL STORE (FOOD)","THE CASABLANCA TOBACCONIST","TORONTO, ON","M5E 1J8","YONGE ST","67 YONGE ST,TORONTO, ON,M5E 1J8",43.64874655,-79.377421167623,25,1,17,1.12682209897644
"277","RETAIL STORE (FOOD)","SUSHI SHOP","TORONTO, ON","M5S 1B2","GRENVILLE ST","76 GRENVILLE ST,TORONTO, ON,M5S 1B2",43.66173045,-79.3875392296137,25,1,36,0.0787264671150852
"278","RETAIL STORE (FOOD)","BOOSTER JUICE","TORONTO, ON","M5J 1E6","FRONT ST W","71 FRONT ST W,TORONTO, ON,M5J 1E6",43.6454993,-79.3813327,25,1,32,0.554954523220658
"279","RETAIL STORE (FOOD)","GRANGE GREEN FARMS","TORONTO, ON","M5T 3K5","MCCAUL ST","109 MCCAUL ST,TORONTO, ON,M5T 3K5",43.6536772,-79.3908145,25,1,25,0.268478198535363
"280","RETAIL STORE (FOOD)","EUROPEAN DELIGHT","TORONTO, ON","M5E 1C2","FRONT ST E","91 FRONT ST E,TORONTO, ON,M5E 1C2",43.649111,-79.37197,25,1,16,0.995705794501019
"281","RETAIL STORE (FOOD)","STARBUCKS COFFEE #23689","TORONTO, ON","M5J 1E6","FRONT ST W","65 FRONT ST W,TORONTO, ON,M5J 1E6",43.6440963,-79.3810054,25,1,35,0.343435928274142
"282","RETAIL STORE (FOOD)","STEAK & CHEESE FACTORY","TORONTO, ON","M5B 1J6","GERRARD ST E","50 GERRARD ST E,TORONTO, ON,M5B 1J6",43.66000545,-79.3788177482695,25,1,18,0.237253411207348
"283","RETAIL STORE (FOOD)","FAMOUS CANADA","TORONTO, ON","M5T 3B3","SPADINA AVE","222 SPADINA AVE,TORONTO, ON,M5T 3B3",43.6509933,-79.3977969,25,1,27,1.05080994959445
"284","RETAIL STORE (FOOD)","DANLEIGH GIFT SHOP","TORONTO, ON","M5V 1J9","KING ST W","370 KING ST W,TORONTO, ON,M5V 1J9",43.64645425,-79.3918087956904,25,1,24,0.2489658262667
"285","RETAIL STORE (FOOD)","SHOPPER'S DRUG MART","TORONTO, ON","M5A 3H6","DUNDAS ST E","593 DUNDAS ST E,TORONTO, ON,M5A 3H6",43.6602426,-79.36135,25,1,26,0.404110842653141
"286","RETAIL STORE (FOOD)","JEREMY KESSLER CANADIAN MUSTARD","TORONTO, ON","M5E 1C3","FRONT ST E","93 FRONT ST E,TORONTO, ON,M5E 1C3",43.649213,-79.371735,25,1,30,0.638550002593547
"287","RETAIL STORE (FOOD)","HUNG HING DRIED GOODS TRADING","TORONTO, ON","M5T 1G7","DUNDAS ST W","434 DUNDAS ST W,TORONTO, ON,M5T 1G7",43.653519,-79.3957443333333,25,1,30,0.233584557659924
"288","RETAIL STORE (FOOD)","INS MARKET","TORONTO, ON","M5J 1E6","FRONT ST W","65 FRONT ST W,TORONTO, ON,M5J 1E6",43.6440963,-79.3810054,25,1,28,0.130795707320783
"289","RETAIL STORE (FOOD)","RAXLEN PHARMACY","TORONTO, ON","M5T 1S5","COLLEGE ST","343 COLLEGE ST,TORONTO, ON,M5T 1S5",43.6571582,-79.403281,25,1,27,2.16590520328417
"290","RETAIL STORE (FOOD)","UNCLE TETSU","TORONTO, ON","M5J 1E6","FRONT ST W","65 FRONT ST W,TORONTO, ON,M5J 1E6",43.6440963,-79.3810054,25,1,23,1.18890787098081
"291","RETAIL STORE (FOOD)","WINNERS","TORONTO, ON","M5B 2G9","DUNDAS ST E","10 DUNDAS ST E,TORONTO, ON,M5B 2G9",43.6570352,-79.3804595895349,25,1,26,1.73477020851316
"292","RETAIL STORE (FOOD)","SPORT CHEK","TORONTO, ON","M5J 0A3","YORK ST","15 YORK ST,TORONTO, ON,M5J 0A3",43.6424718,-79.380761,25,1,29,0.0937868217006326
"293","RETAIL STORE (FOOD)","SPORT CHEK","TORONTO, ON","M5B 2H6","YONGE ST","218 YONGE ST,TORONTO, ON,M5B 2H6",43.6538619,-79.3804695,25,1,25,0.343557421118021
"294","RETAIL STORE (FOOD)","THE BAGEL STOP","TORONTO, ON","M5J 1E6","FRONT ST W","65 FRONT ST W,TORONTO, ON,M5J 1E6",43.6440963,-79.3810054,25,1,17,3.94407974721348
"295","RETAIL STORE (FOOD)","INS MARKET","TORONTO, ON","M5G 2C8","BAY ST","777 BAY ST,TORONTO, ON,M5G 2C8",43.6597907,-79.3849782,25,1,35,1.41338685332778
"296","RETAIL STORE (FOOD)","BENTO SUSHI / IN THE SIX POKE","TORONTO, ON","M5C 2L7","YONGE ST","176 YONGE ST,TORONTO, ON,M5C 2L7",43.6516516,-79.3807192,25,1,30,1.07622559100384
"297","RETAIL STORE (FOOD)","NASSAU VARIETY","TORONTO, ON","M5T 1M7","NASSAU ST","90 NASSAU ST,TORONTO, ON,M5T 1M7",43.6550488,-79.4038508,25,1,24,0.890153215224755
"298","RETAIL STORE (FOOD)","GREENHOUSE JUICE COMPANY","TORONTO, ON","M5C 2L7","YONGE ST","176 YONGE ST,TORONTO, ON,M5C 2L7",43.6516516,-79.3807192,25,1,32,2.36780858586047
"299","RETAIL STORE (FOOD)","Z-TECA GOURMET BURRITOS","TORONTO, ON","M5J 0A8","BREMNER BLVD","120 BREMNER BLVD,TORONTO, ON,M5J 0A8",43.6429936,-79.3829397,25,1,24,4.62494807292647
"300","RETAIL STORE (FOOD)","SK QUALITY MEATS","TORONTO, ON","M5E 1C3","FRONT ST E","93 FRONT ST E,TORONTO, ON,M5E 1C3",43.649213,-79.371735,25,1,23,1.7603668513799
"301","RETAIL STORE (FOOD)","WILLIAMS-SONOMA #536","TORONTO, ON","M5B 2H1","YONGE ST","220 YONGE ST,TORONTO, ON,M5B 2H1",43.6541457,-79.3807927664679,25,1,30,0.150393548887223
"302","RETAIL STORE (FOOD)","REXALL PHARMACIES","TORONTO, ON","M5H 1T1","ADELAIDE ST W","120 ADELAIDE ST W,TORONTO, ON,M5H 1T1",43.6498399,-79.3829534,25,1,26,0.130399300772811
"303","RETAIL STORE (FOOD)","REXALL PHARMACIES","TORONTO, ON","M5G 2C8","BAY ST","777 BAY ST,TORONTO, ON,M5G 2C8",43.6597907,-79.3849782,25,1,29,0.99276899551087
"304","RETAIL STORE (FOOD)","REXALL PHARMACIES","TORONTO, ON","M5V 3C7","WELLINGTON ST W","200 WELLINGTON ST W,TORONTO, ON,M5V 3C7",43.645944,-79.387904,25,1,28,0.563743688631803
"305","RETAIL STORE (FOOD)","REXALL PHARMACIES","TORONTO, ON","M5R 3R9","AVENUE RD","87 AVENUE RD,TORONTO, ON,M5R 3R9",43.6719125,-79.395151,25,1,30,2.02220847821775
"306","RETAIL STORE (FOOD)","REXALL PHARMACIES","TORONTO, ON","M5G 2C2","BAY ST","595 BAY ST,TORONTO, ON,M5G 2C2",43.656009,-79.383069,25,1,17,0.319218449866501
"307","RETAIL STORE (FOOD)","REXALL PHARMACIES","TORONTO, ON","M5E 1B3","FRONT ST E","57 FRONT ST E,TORONTO, ON,M5E 1B3",43.6481419531084,-79.3740513497779,25,1,30,0.234035852785548
"308","RETAIL STORE (FOOD)","REXALL PHARMACIES","TORONTO, ON","M5S 1B2","GRENVILLE ST","76 GRENVILLE ST,TORONTO, ON,M5S 1B2",43.66173045,-79.3875392296137,25,1,24,0.569090025499463
"309","RETAIL STORE (FOOD)","REXALL PHARMACIES","TORONTO, ON","M5A 2Y5","PARLIAMENT ST","539 PARLIAMENT ST,TORONTO, ON,M5A 2Y5",43.6660203,-79.3684761,25,1,23,1.715623203581
"310","RETAIL STORE (FOOD)","BAY COLLEGE DRUG MART","TORONTO, ON","M5G 1N8","BAY ST","790 BAY ST,TORONTO, ON,M5G 1N8",43.6604591,-79.3860394,25,1,20,0.209175305906683
"311","RETAIL STORE (FOOD)","BRICK STREET BAKERY","TORONTO, ON","M5A 3C4","TRINITY ST","27 TRINITY ST,TORONTO, ON,M5A 3C4",43.65058162,-79.35947852,25,1,17,0.819332170258177
"312","RETAIL STORE (FOOD)","GREENHOUSE JUICE COMPANY","TORONTO, ON","M5J 2T3","BAY ST","181 BAY ST,TORONTO, ON,M5J 2T3",43.6465062,-79.3786735,25,1,24,0.668243300635368
"313","RETAIL STORE (FOOD)","KORYO","TORONTO, ON","M5B 2H1","YONGE ST","220 YONGE ST,TORONTO, ON,M5B 2H1",43.6541457,-79.3807927664679,25,1,25,0.600577155593783
"314","RETAIL STORE (FOOD)","IQ FOOD CO","TORONTO, ON","M5V 1M5","KING ST W","613 KING ST W,TORONTO, ON,M5V 1M5",43.6443773,-79.4004401,25,1,36,0.0479320301674306
"315","RETAIL STORE (FOOD)","MCDONALD'S RESTAURANT","TORONTO, ON","M5B 2L9","YONGE ST","260 YONGE ST,TORONTO, ON,M5B 2L9",43.6553085,-79.3814992,25,1,25,1.10090162042053
"316","RETAIL STORE (FOOD)","ANGGONA FASHION PLUS","TORONTO, ON","M5A 2Z7","PARLIAMENT ST","320A PARLIAMENT ST,TORONTO, ON,M5A 2Z7",43.6618716,-79.3669912,25,1,19,2.53140543574903
"317","RETAIL STORE (FOOD)","A1 NUTRITION","TORONTO, ON","M5H 3T9","KING ST W","121 KING ST W,TORONTO, ON,M5H 3T9",43.6476852,-79.3829683711884,25,1,25,1.85657627685907
"318","RETAIL STORE (FOOD)","BUSTER'S SEA COVE","TORONTO, ON","M5E 1C3","FRONT ST E","91 FRONT ST E,TORONTO, ON,M5E 1C3",43.6490998,-79.3718809,25,1,20,1.48995389222148
"319","RETAIL STORE (FOOD)","LOBLAWS","TORONTO, ON","M5B 1J2","CARLTON ST","60 CARLTON ST,TORONTO, ON,M5B 1J2",43.6620397,-79.3801385,25,1,23,0.402129756752402
"320","RETAIL STORE (FOOD)","ROYALTEA","TORONTO, ON","M5T 1H1","DUNDAS ST W","491A DUNDAS ST W,TORONTO, ON,M5T 1H1",43.6530776,-79.3974266,25,1,22,0.676263684872538
"321","RETAIL STORE (FOOD)","RASTA PASTA JAMAICAN AND ITALIAN CUISINE","TORONTO, ON","M5T 2K2","KENSINGTON AVE","61 KENSINGTON AVE,TORONTO, ON,M5T 2K2",43.654193,-79.400345,25,1,23,0.21931036002934
"322","RETAIL STORE (FOOD)","RASTA PASTA JAMAICAN AND ITALIAN CUISINE","TORONTO, ON","M5T 2K2","KENSINGTON AVE","63 KENSINGTON AVE,TORONTO, ON,M5T 2K2",43.6542472222222,-79.4003658888889,25,1,20,0.620152429211885
"323","RETAIL STORE (FOOD)","QUEENS FRUIT MARKET","TORONTO, ON","M5V 2B5","QUEEN ST W","564 QUEEN ST W,TORONTO, ON,M5V 2B5",43.6474506,-79.4033405,25,1,24,0.274909645784646
"324","RETAIL STORE (FOOD)","GALLERIA EXPRESS","TORONTO, ON","M5S 1W7","BLOOR ST W","351 BLOOR ST W,TORONTO, ON,M5S 1W7",43.6669087,-79.4010556,25,1,21,0.158574182165885
"325","RETAIL STORE (FOOD)","FRESHII","TORONTO, ON","M5J 2Y5","QUEENS QUAY W","208 QUEENS QUAY W,TORONTO, ON,M5J 2Y5",43.6399699,-79.3812666,25,1,27,0.541828245390207
"326","RETAIL STORE (FOOD)","BOBO TEA AND JUICE","TORONTO, ON","M5V 4A6","FORT YORK BLVD","62 FORT YORK BLVD,TORONTO, ON,M5V 4A6",43.6400181348484,-79.3962461580044,25,1,25,0.269882297609001
"327","RETAIL STORE (FOOD)","MR PIZZA DOWNTOWN","TORONTO, ON","M5E 2A1","YONGE ST","16 YONGE ST,TORONTO, ON,M5E 2A1",43.6432399,-79.3760682,25,1,27,0.903016954618406
"328","RETAIL STORE (FOOD)","GOLDEN PATTY BAKERY","TORONTO, ON","M5T 1M1","BALDWIN ST","187 BALDWIN ST,TORONTO, ON,M5T 1M1",43.6546273333333,-79.4009166666667,25,1,26,0.316633237955252
"329","RETAIL STORE (FOOD)","PANCHO'S BAKERY INC","TORONTO, ON","M5T 2L6","AUGUSTA AVE","214 AUGUSTA AVE,TORONTO, ON,M5T 2L6",43.6547204,-79.4022615444444,25,1,27,1.27660257923872
"330","RETAIL STORE (FOOD)","HAKKA N' JERK","TORONTO, ON","M5A 2G7","GERRARD ST E","296A GERRARD ST E,TORONTO, ON,M5A 2G7",43.6621185,-79.366765,25,1,32,1.34547399818422
"331","RETAIL STORE (FOOD)","STUFF'D TORONTO","TORONTO, ON","M5T 2W6","DUNDAS ST W","707 DUNDAS ST W,TORONTO, ON,M5T 2W6",43.6519938,-79.4048143,25,1,22,2.90783850086813
"332","RETAIL STORE (FOOD)","SAFFRON SPICE KITCHEN","TORONTO, ON","M5V 2A9","QUEEN ST W","459 QUEEN ST W,TORONTO, ON,M5V 2A9",43.64846,-79.3972301,25,1,21,3.65853965820229
"333","RETAIL STORE (FOOD)","NUTRITION HOUSE","TORONTO, ON","M5J 2S1","BAY ST","161 BAY ST,TORONTO, ON,M5J 2S1",43.6469242,-79.3786575,25,1,30,0.814901574568917
"334","RETAIL STORE (FOOD)","KOHA PACIFIC KITCHEN","TORONTO, ON","M5V 3C7","WELLINGTON ST W","200 WELLINGTON ST W,TORONTO, ON,M5V 3C7",43.645944,-79.387904,25,1,24,2.44138695100758
"335","RETAIL STORE (FOOD)","MARCELLO'S MARKET & DELI","TORONTO, ON","M5H 3Y2","KING ST W","40 KING ST W,TORONTO, ON,M5H 3Y2",43.64949675,-79.3795651438561,25,1,28,0.124938574619591
"336","RETAIL STORE (FOOD)","DANISH PASTRY HOUSE","TORONTO, ON","M5J 1E6","FRONT ST W","65 FRONT ST W,TORONTO, ON,M5J 1E6",43.6440963,-79.3810054,25,1,32,0.135999037884176
"337","RETAIL STORE (FOOD)","MOS MOS","TORONTO, ON","M5J 2N8","BAY ST","20 BAY ST,TORONTO, ON,M5J 2N8",43.6416849,-79.3778218,25,1,23,0.654299731831998
"338","RETAIL STORE (FOOD)","REAL FRUIT BUBBLE TEA","TORONTO, ON","M5B 2H4","YONGE ST","444 YONGE ST,TORONTO, ON,M5B 2H4",43.66056235,-79.3834490593208,25,1,30,3.80129638852036
"339","RETAIL STORE (FOOD)","COFFEE EXCHANGE","TORONTO, ON","M5T 1W1","MCCAUL ST","100 MCCAUL ST,TORONTO, ON,M5T 1W1",43.6528424,-79.3910637,25,1,19,0.58641622774303
"340","RETAIL STORE (FOOD)","FIT FOR LIFE","TORONTO, ON","M5A 3W8","KING ST E","200 KING ST E,TORONTO, ON,M5A 3W8",43.651419,-79.3702911199528,25,1,21,0.403235078789294
"341","RETAIL STORE (FOOD)","CAFE PLENTY","TORONTO, ON","M5H 2R2","BAY ST","333 BAY ST,TORONTO, ON,M5H 2R2",43.6502975,-79.3804773504838,25,1,18,1.40296582019822
"342","RETAIL STORE (FOOD)","SHOPPERS DRUG MART","TORONTO, ON","M5V 1N4","KING ST W","761 KING ST W,TORONTO, ON,M5V 1N4",43.6431093,-79.4058905,25,1,22,0.579258111771196
"343","RETAIL STORE (FOOD)","SOUTH CHINA HERBS MARKET","TORONTO, ON","M5T 1H1","DUNDAS ST W","491 DUNDAS ST W,TORONTO, ON,M5T 1H1",43.65293775,-79.3975806875,25,1,26,0.656080641318113
"344","RETAIL STORE (FOOD)","BLUE BANANA","TORONTO, ON","M5T 2L7","AUGUSTA AVE","250 AUGUSTA AVE,TORONTO, ON,M5T 2L7",43.6556494,-79.4026592,25,1,24,3.21578408015852
"345","RETAIL STORE (FOOD)","KIKKA SUSHI","TORONTO, ON","M5R 3R9","AVENUE RD","87 AVENUE RD,TORONTO, ON,M5R 3R9",43.6719125,-79.395151,25,1,35,1.59652931689765
"346","RETAIL STORE (FOOD)","SALAD DAYS","TORONTO, ON","M5H 2R2","BAY ST","333 BAY ST,TORONTO, ON,M5H 2R2",43.6502975,-79.3804773504838,25,1,22,0.804590327680924
"347","RETAIL STORE (FOOD)","HAILED COFFEE","TORONTO, ON","M5G 2K2","GERRARD ST W","44 GERRARD ST W,TORONTO, ON,M5G 2K2",43.6589387,-79.3838272,25,1,23,0.758748882692558
"348","RETAIL STORE (FOOD)","TUNG TUNG DAN QUEN","TORONTO, ON","M5T 3A5","SPADINA AVE","280 SPADINA AVE,TORONTO, ON,M5T 3A5",43.6526523,-79.3985239,25,1,30,0.147340298841809
"349","RETAIL STORE (FOOD)","BROOKFIELD NORI JAPAN","TORONTO, ON","M5J 2T3","BAY ST","181 BAY ST,TORONTO, ON,M5J 2T3",43.6465062,-79.3786735,25,1,21,1.11175705302031
"350","RETAIL STORE (FOOD)","GREENHOUSE JUICE COMPANY","TORONTO, ON","M5J 1E6","FRONT ST W","65 FRONT ST W,TORONTO, ON,M5J 1E6",43.6440963,-79.3810054,25,1,28,0.231303939130157
"351","RETAIL STORE (FOOD)","NANTANA THAI FOOD & DESSERTS","TORONTO, ON","M5T 2W6","DUNDAS ST W","707 DUNDAS ST W,TORONTO, ON,M5T 2W6",43.6519938,-79.4048143,25,1,31,0.0808059298433363
"352","RETAIL STORE (FOOD)","WINNERS","TORONTO, ON","M5J 0B7","HARBOUR ST","110 HARBOUR ST,TORONTO, ON,M5J 0B7",43.6416048,-79.3801501,25,1,19,0.0537412711196036
"353","RETAIL STORE (FOOD)","MANCHU WOK","TORONTO, ON","M5V 3C7","WELLINGTON ST W","200 WELLINGTON ST W,TORONTO, ON,M5V 3C7",43.645944,-79.387904,25,1,24,0.937488003591907
"354","RETAIL STORE (FOOD)","NAWAB EXPRESS ON AVENUE","TORONTO, ON","M5M 3Y8","AVENUE RD","1753 AVENUE RD,TORONTO, ON,M5M 3Y8",43.7291327333333,-79.4181687444444,25,1,21,0.609462935477495
"355","RETAIL STORE (FOOD)","UNION MERCADO","TORONTO, ON","M5J 1E6","FRONT ST W","65 FRONT ST W,TORONTO, ON,M5J 1E6",43.6440963,-79.3810054,25,1,25,0.364953670185059
"356","RETAIL STORE (FOOD)","D & D CONVENIENCE GROCERY","TORONTO, ON","M5R 1V7","DUPONT ST","272 DUPONT ST,TORONTO, ON,M5R 1V7",43.6750294,-79.406924,25,1,23,1.73515733455665
"357","RETAIL STORE (FOOD)","FABBRICA RUSTIC ITALIAN MARKET","TORONTO, ON","M5K 1A1","WELLINGTON ST W","66 WELLINGTON ST W,TORONTO, ON,M5K 1A1",43.6472606,-79.3814529,25,1,22,1.44498034744504
"358","RETAIL STORE (FOOD)","NOM NOM NOM FOODS","TORONTO, ON","M5T 2W6","DUNDAS ST W","707 DUNDAS ST W,TORONTO, ON,M5T 2W6",43.6519938,-79.4048143,25,1,25,0.373212361708283
"359","RETAIL STORE (FOOD)","NEW MANOR CONVENIENCE","TORONTO, ON","M4S 2M5","MOUNT PLEASANT RD","621 MOUNT PLEASANT RD,TORONTO, ON,M4S 2M5",43.704198,-79.388389,25,1,27,0.372122010681778
"360","RETAIL STORE (FOOD)","TERIYAKI EXPERIENCE","TORONTO, ON","M5B 2L9","YONGE ST","260 YONGE ST,TORONTO, ON,M5B 2L9",43.6553085,-79.3814992,25,1,24,0.241526990740119
"361","RETAIL STORE (FOOD)","JACKED UP COFFEE","TORONTO, ON","M5R 1C2","YORKVILLE AVE","136-138 YORKVILLE AVE,TORONTO, ON,M5R 1C2",43.6704003,-79.3946697,25,1,26,0.249090751867421
"362","RETAIL STORE (FOOD)","SHOPPERS DRUG MART STORE #949","TORONTO, ON","M5E 1K3","YONGE ST","69 YONGE ST,TORONTO, ON,M5E 1K3",43.649079,-79.3776658,25,1,22,2.54879589925025
"363","RETAIL STORE (FOOD)","GUSHI CHICKEN","TORONTO, ON","M5T 2W6","DUNDAS ST W","707 DUNDAS ST W,TORONTO, ON,M5T 2W6",43.6519938,-79.4048143,25,1,19,0.468711905181408
"364","RETAIL STORE (FOOD)","MEDCAN","TORONTO, ON","M5H 3S5","YORK ST","150 YORK ST,TORONTO, ON,M5H 3S5",43.649284,-79.384275,25,1,22,1.05608708779783
"365","RETAIL STORE (FOOD)","BASIL BOX - RBC PLAZA","TORONTO, ON","M5J 2J1","BAY ST","200 BAY ST,TORONTO, ON,M5J 2J1",43.64636145,-79.379754855364,25,1,25,0.453771608524538
"366","RETAIL STORE (FOOD)","STARBANK","TORONTO, ON","M5T 3A9","COLLEGE ST","340 COLLEGE ST,TORONTO, ON,M5T 3A9",43.6574485,-79.4036825,25,1,16,0.124723106157035
"367","RETAIL STORE (FOOD)","MR. BENTO","TORONTO, ON","M5B 1S8","YONGE ST","384 YONGE ST,TORONTO, ON,M5B 1S8",43.65929935,-79.3830127214071,25,1,29,0.364028281066567
"368","RETAIL STORE (FOOD)","PICO DE GALLO","TORONTO, ON","M5T 2L6","AUGUSTA AVE","214 AUGUSTA AVE,TORONTO, ON,M5T 2L6",43.6547204,-79.4022615444444,25,1,20,1.07892290871115
"369","RETAIL STORE (FOOD)","LA PREP","TORONTO, ON","M5S 1B2","GRENVILLE ST","76 GRENVILLE ST,TORONTO, ON,M5S 1B2",43.66173045,-79.3875392296137,25,1,25,1.30833978481115
"370","RETAIL STORE (FOOD)","CHOCO CHURROS","TORONTO, ON","M5B 1R7","YONGE ST","335 YONGE ST,TORONTO, ON,M5B 1R7",43.65733055,-79.38094975,25,1,22,0.384463400579989
"371","RETAIL STORE (FOOD)","REAL FRUIT BUBBLE TEA","TORONTO, ON","M5B 2H1","YONGE ST","220 YONGE ST,TORONTO, ON,M5B 2H1",43.6541457,-79.3807927664679,25,1,25,2.43320349405024
"372","RETAIL STORE (FOOD)","SHANGHAI 360","TORONTO, ON","M5J 1E6","FRONT ST W","65 FRONT ST W,TORONTO, ON,M5J 1E6",43.6440963,-79.3810054,25,1,29,0.0606217670958013
"373","RETAIL STORE (FOOD)","BOMBAY ROTI","TORONTO, ON","M5S 1Y5","BLOOR ST W","529 BLOOR ST W,TORONTO, ON,M5S 1Y5",43.66529955,-79.4094552967544,25,1,25,0.549010406713933
"374","RETAIL STORE (FOOD)","ATIN ITO COMPANY","TORONTO, ON","M5A 2K6","CARLTON ST","182 CARLTON ST,TORONTO, ON,M5A 2K6",43.6634893333333,-79.3724123666667,25,1,33,0.916003601141335
"375","RETAIL STORE (FOOD)","MUJI","TORONTO, ON","M5G 2C2","BAY ST","595 BAY ST,TORONTO, ON,M5G 2C2",43.656009,-79.383069,25,1,20,0.997975625987065
"376","RETAIL STORE (FOOD)","LOADED PIEROGI","TORONTO, ON","M5J 1E6","FRONT ST W","65 FRONT ST W,TORONTO, ON,M5J 1E6",43.6440963,-79.3810054,25,1,33,0.148637808393687
"377","RETAIL STORE (FOOD)","TIM HORTONS","TORONTO, ON","M5J 2J1","BAY ST","200 BAY ST,TORONTO, ON,M5J 2J1",43.64636145,-79.379754855364,25,1,19,0.248258865904063
"378","RETAIL STORE (FOOD)","REFUEL JUICERY","TORONTO, ON","M5B 2H6","YONGE ST","218 YONGE ST,TORONTO, ON,M5B 2H6",43.6538619,-79.3804695,25,1,20,0.0877203997224569
"379","RETAIL STORE (FOOD)","PARAMOUNT LEBANESE KITCHEN","TORONTO, ON","M5J 1E6","FRONT ST W","65 FRONT ST W,TORONTO, ON,M5J 1E6",43.6440963,-79.3810054,25,1,29,0.93400070625813
"380","RETAIL STORE (FOOD)","TIM HORTONS","TORONTO, ON","M5J 1E6","FRONT ST W","65 FRONT ST W,TORONTO, ON,M5J 1E6",43.6440963,-79.3810054,25,1,22,0.107710375561739
"381","RETAIL STORE (FOOD)","DOLLARAMA","TORONTO, ON","M5J 0B7","HARBOUR ST","110 HARBOUR ST,TORONTO, ON,M5J 0B7",43.6416048,-79.3801501,25,1,22,0.0827582903052917
"382","RETAIL STORE (FOOD)","GREAT MOUNTAIN GINSENG CO LTD","TORONTO, ON","M5T 2E7","SPADINA AVE","324 SPADINA AVE,TORONTO, ON,M5T 2E7",43.6536168777778,-79.3986027222222,25,1,30,0.147241981234401
"383","RETAIL STORE (FOOD)","JACKED UP COFFEE","TORONTO, ON","M5V 3M2","KING ST W","225 KING ST W,TORONTO, ON,M5V 3M2",43.6466815,-79.3885456,25,1,18,0.0249870609709904
"384","RETAIL STORE (FOOD)","SHORT AND SWEET BAKE SHOP CO.","TORONTO, ON","M5M 4A2","AVENUE RD","1945 AVENUE RD,TORONTO, ON,M5M 4A2",43.7339915066667,-79.4194740266667,25,1,24,0.740999206970464
"385","RETAIL STORE (FOOD)","SCACCIA-TORONTO UNION STATION","TORONTO, ON","M5J 1E6","FRONT ST W","65 FRONT ST W,TORONTO, ON,M5J 1E6",43.6440963,-79.3810054,25,1,21,0.235528329852968
"386","RETAIL STORE (FOOD)","CORNER CONVENIENCE STORE","TORONTO, ON","M5A 3A3","PARLIAMENT ST","491 PARLIAMENT ST,TORONTO, ON,M5A 3A3",43.6643898,-79.3678244,25,1,29,1.08840179177501
"387","RETAIL STORE (FOOD)","YOGEN FRUZ","TORONTO, ON","M5B 2H1","YONGE ST","220 YONGE ST,TORONTO, ON,M5B 2H1",43.6541457,-79.3807927664679,25,1,31,0.851721595767076
"388","RETAIL STORE (FOOD)","COMPASS GROUP CANADA","TORONTO, ON","M5B 1W8","BOND ST","30 BOND ST,TORONTO, ON,M5B 1W8",43.6536408,-79.3778068441447,25,1,15,1.19470139961214
"389","RETAIL STORE (FOOD)","WINNERS","TORONTO, ON","M5T 2S6","BATHURST ST","410 BATHURST ST,TORONTO, ON,M5T 2S6",43.6542022,-79.4069764,25,1,23,1.92388929045739
"390","RETAIL STORE (FOOD)","ASIAN GOURMET","TORONTO, ON","M5B 2G9","DUNDAS ST E","10 DUNDAS ST E,TORONTO, ON,M5B 2G9",43.6570352,-79.3804595895349,25,1,18,1.10821892316909
"391","RETAIL STORE (FOOD)","TACHI","TORONTO, ON","M5H 2G4","RICHMOND ST W","111 RICHMOND ST W,TORONTO, ON,M5H 2G4",43.6503609,-79.3837616,25,1,23,1.06767793006013
"392","RETAIL STORE (FOOD)","THE BAGEL STOP","TORONTO, ON","M5B 2H4","YONGE ST","444 YONGE ST,TORONTO, ON,M5B 2H4",43.66056235,-79.3834490593208,25,1,28,1.48530376284081
"393","RETAIL STORE (FOOD)","TIM HORTONS","TORONTO, ON","M5B 2H1","YONGE ST","218 YONGE ST,TORONTO, ON,M5B 2H1",43.6538619,-79.3804695,25,1,29,0.131651042029262
"394","RETAIL STORE (FOOD)","JUNOON BY AMAYA","TORONTO, ON","M5X 1A9","KING ST W","100 KING ST W,TORONTO, ON,M5X 1A9",43.6487681,-79.3816917928303,25,1,24,1.30489156297864
"395","RETAIL STORE (FOOD)","STARFISH CARIBBEAN MARKET","TORONTO, ON","M5T 2S6","BATHURST ST","410 BATHURST ST,TORONTO, ON,M5T 2S6",43.6542022,-79.4069764,25,1,27,0.598821026273072
"396","RETAIL STORE (FOOD)","CHATIME","TORONTO, ON","M5V 2A9","QUEEN ST W","461 QUEEN ST W,TORONTO, ON,M5V 2A9",43.6484574,-79.3972623,25,1,20,0.691866939421743
"397","RETAIL STORE (FOOD)","ST URBAIN BAGEL (ST LAWRENCE MARKET)","TORONTO, ON","M5E 1C4","FRONT ST E","91 FRONT ST E,TORONTO, ON,M5E 1C4",43.649111,-79.37197,25,1,29,2.38238194385979
"398","RETAIL STORE (FOOD)","NADEGE PATISSERIE PATH","TORONTO, ON","M5H 1T1","ADELAIDE ST W","120 ADELAIDE ST W,TORONTO, ON,M5H 1T1",43.6498399,-79.3829534,25,1,20,0.158557628747076
"399","RETAIL STORE (FOOD)","REAL FRUIT BUBBLE TEA","TORONTO, ON","M5V 1Z4","QUEEN ST W","223 QUEEN ST W,TORONTO, ON,M5V 1Z4",43.6504307,-79.3879849,25,1,27,0.839097515543485
"400","RETAIL STORE (FOOD)","KOHA PACIFIC KITCHEN","TORONTO, ON","M5K 1A1","WELLINGTON ST W","100 WELLINGTON ST W,TORONTO, ON,M5K 1A1",43.647349,-79.3826485,25,1,23,0.114388942252845
"401","RETAIL STORE (FOOD)","KUPFERT & KIM","TORONTO, ON","M5J 2N8","BAY ST","20 BAY ST,TORONTO, ON,M5J 2N8",43.6416849,-79.3778218,25,1,31,0.178295541554689
"402","RETAIL STORE (FOOD)","KUPFERT & KIM","TORONTO, ON","M5X 1B1","KING ST W","100 KING ST W,TORONTO, ON,M5X 1B1",43.6487681,-79.3816917928303,25,1,14,0.58173197414726
"403","RETAIL STORE (FOOD)","KUPFERT & KIM","TORONTO, ON","M5H 1J9","KING ST W","150 KING ST W,TORONTO, ON,M5H 1J9",43.6481125,-79.3844631429942,25,1,29,1.85412904425504
"404","RETAIL STORE (FOOD)","STONEMILL BAKEHOUSE","TORONTO, ON","M5E 1C3","FRONT ST E","93 FRONT ST E,TORONTO, ON,M5E 1C3",43.649213,-79.371735,25,1,29,1.53559805258157
"405","RETAIL STORE (FOOD)","ALLWYN'S","TORONTO, ON","M5V 2A6","QUEEN ST W","404 QUEEN ST W,TORONTO, ON,M5V 2A6",43.6486871,-79.3972757,25,1,21,1.27384361154856
"406","RETAIL STORE (FOOD)","HARVEY'S #2729","TORONTO, ON","M5B 2G9","DUNDAS ST E","10 DUNDAS ST E,TORONTO, ON,M5B 2G9",43.6570352,-79.3804595895349,25,1,30,0.966731316367996
"407","RETAIL STORE (FOOD)","GONG CHA","TORONTO, ON","M5V 2A6","QUEEN ST W","390 QUEEN ST W,TORONTO, ON,M5V 2A6",43.6487475,-79.3968767,25,1,24,1.28000668059559
"408","RETAIL STORE (FOOD)","KO'OX HANA","TORONTO, ON","M5T 2L6","AUGUSTA AVE","214 AUGUSTA AVE,TORONTO, ON,M5T 2L6",43.6547204,-79.4022615444444,25,1,22,1.11316661998154
"409","RETAIL STORE (FOOD)","KIBO SUSHI CITY HALL","TORONTO, ON","M5H 3M9","QUEEN ST W","123 QUEEN ST W,TORONTO, ON,M5H 3M9",43.6511085,-79.383474444692,25,1,26,2.44048414925549
"410","RETAIL STORE (FOOD)","INS MARKET","TORONTO, ON","M5H 1J9","KING ST W","150 KING ST W,TORONTO, ON,M5H 1J9",43.6481125,-79.3844631429942,25,1,25,1.67118959120455
"411","RETAIL STORE (FOOD)","COMPASS GROUP CANADA","TORONTO, ON","M5J 2S1","BAY ST","161 BAY ST,TORONTO, ON,M5J 2S1",43.6469242,-79.3786575,25,1,26,1.3990672341639
"412","RETAIL STORE (FOOD)","SHOPPERS DRUG MART 1281","TORONTO, ON","M5R 1V9","DUPONT ST","292 DUPONT ST,TORONTO, ON,M5R 1V9",43.6748464,-79.4077525,25,1,22,0.653866200707853
"413","RETAIL STORE (FOOD)","CHAVETA COFFEE","TORONTO, ON","M5R 3G7","BATHURST ST","994 BATHURST ST,TORONTO, ON,M5R 3G7",43.670413,-79.413425,25,1,29,2.81263474582833
"414","RETAIL STORE (FOOD)","JOHN'S MART","TORONTO, ON","M5V 1M1","KING ST W","581 KING ST W,TORONTO, ON,M5V 1M1",43.6443951,-79.3996511,25,1,31,0.906844222420819
"415","RETAIL STORE (FOOD)","MATTAMY ATHLETIC CENTRE AT MAPLE LEAF GARDENS","TORONTO, ON","M5B 1J2","CARLTON ST","50 CARLTON ST,TORONTO, ON,M5B 1J2",43.6618260210526,-79.3802904105263,25,1,21,1.26110239695282
"416","RETAIL STORE (FOOD)","TORONTO METROPOLITAN UNIVERSITY","TORONTO, ON","M5G 2C3","DUNDAS ST W","55 DUNDAS ST W,TORONTO, ON,M5G 2C3",43.65574659375,-79.3831603125,25,1,30,0.0669402028433979
"417","RETAIL STORE (FOOD)","NEW YORK FRIES","TORONTO, ON","M5B 2H1","YONGE ST","220 YONGE ST,TORONTO, ON,M5B 2H1",43.6541457,-79.3807927664679,25,1,30,0.139647671021521
"418","RETAIL STORE (FOOD)","CHEF HARWASH","TORONTO, ON","M5T 2W6","DUNDAS ST W","707 DUNDAS ST W,TORONTO, ON,M5T 2W6",43.6519938,-79.4048143,25,1,24,0.286498577799648
"419","RETAIL STORE (FOOD)","VICTORIA VARIETY","TORONTO, ON","M5C 1Y2","VICTORIA ST","44 VICTORIA ST,TORONTO, ON,M5C 1Y2",43.6502203,-79.3772618,25,1,21,0.112327628701593
"420","RETAIL STORE (FOOD)","FUSIA ASIAN KITCHEN","TORONTO, ON","M5G 2C2","BAY ST","595 BAY ST,TORONTO, ON,M5G 2C2",43.656009,-79.383069,25,1,22,1.80459206811179
"421","RETAIL STORE (FOOD)","DAISY MART","TORONTO, ON","M5A 1Z9","DUNDAS ST E","272 DUNDAS ST E,TORONTO, ON,M5A 1Z9",43.6583945,-79.3720065,25,1,22,0.6738501181826
"422","RETAIL STORE (FOOD)","HATTENDO CAFE","TORONTO, ON","M5T 1L1","BALDWIN ST","13 BALDWIN ST,TORONTO, ON,M5T 1L1",43.6560312,-79.3927533,25,1,28,3.14383989555721
"423","RETAIL STORE (FOOD)","XUN'S STANLEY VARIETY STORE","TORONTO, ON","M5A 2G1","GERRARD ST E","237 GERRARD ST E,TORONTO, ON,M5A 2G1",43.661678,-79.3695032,25,1,30,0.317059892740475
"424","RETAIL STORE (FOOD)","BURGER KING","TORONTO, ON","M5X 1A6","KING ST W","130 KING ST W,TORONTO, ON,M5X 1A6",43.64841795,-79.3832424528398,25,1,25,3.29449704272633
"425","RETAIL STORE (FOOD)","CHATIME ATEALIER","TORONTO, ON","M5X 1A9","KING ST W","100 KING ST W,TORONTO, ON,M5X 1A9",43.6487681,-79.3816917928303,25,1,24,0.0838858687644844
"426","RETAIL STORE (FOOD)","SUMMERHILL MARKET","TORONTO, ON","M5R 3G7","BATHURST ST","1014 BATHURST ST,TORONTO, ON,M5R 3G7",43.6709605862069,-79.4136398275862,25,1,40,0.35626756073907
"427","RETAIL STORE (FOOD)","AAAMAZING SALAD","TORONTO, ON","M5C 1K9","ADELAIDE ST E","82 ADELAIDE ST E,TORONTO, ON,M5C 1K9",43.6514793,-79.3735779,25,1,24,2.40142027462337
"428","RETAIL STORE (FOOD)","LADERACH","TORONTO, ON","M5B 2H1","YONGE ST","220 YONGE ST,TORONTO, ON,M5B 2H1",43.6541457,-79.3807927664679,25,1,25,0.457341847009957
"429","RETAIL STORE (FOOD)","ISLE OF COFFEE","TORONTO, ON","M5N 1A2","EGLINTON AVE W","380A EGLINTON AVE W,TORONTO, ON,M5N 1A2",43.7040158,-79.4112382,25,1,23,1.38909059754553
"430","RETAIL STORE (FOOD)","FRESHLY SQUEEZED","TORONTO, ON","M5B 2H6","YONGE ST","218 YONGE ST,TORONTO, ON,M5B 2H6",43.6538619,-79.3804695,25,1,28,0.99344463642211
"431","RETAIL STORE (FOOD)","NOSH & GO","TORONTO, ON","M5H 1J9","KING ST W","150 KING ST W,TORONTO, ON,M5H 1J9",43.6481125,-79.3844631429942,25,1,24,5.98516569998036
"432","RETAIL STORE (FOOD)","TIEE EXPRESS","TORONTO, ON","M5V 1J5","KING ST W","287 KING ST W,TORONTO, ON,M5V 1J5",43.646472,-79.389905,25,1,28,2.80182113481646
"433","RETAIL STORE (FOOD)","THE ALLEY","TORONTO, ON","M5H 1T1","ADELAIDE ST W","120 ADELAIDE ST W,TORONTO, ON,M5H 1T1",43.6498399,-79.3829534,25,1,30,4.45082778892318
"434","RETAIL STORE (FOOD)","SANSOTEI RAMEN","TORONTO, ON","M5J 1E6","FRONT ST W","65 FRONT ST W,TORONTO, ON,M5J 1E6",43.6440963,-79.3810054,25,1,19,0.700279234866512
"435","RETAIL STORE (FOOD)","BOBO BENTO BOX","TORONTO, ON","M5V 4A7","FORT YORK BLVD","98 FORT YORK BLVD,TORONTO, ON,M5V 4A7",43.6397830149415,-79.3973680939572,25,1,24,0.315350926241605
"436","RETAIL STORE (FOOD)","U OF T SECOND CUP","TORONTO, ON","M5S 3M2","COLLEGE ST","144 COLLEGE ST,TORONTO, ON,M5S 3M2",43.6599489,-79.3917767565589,25,1,24,2.27936295340265
"437","RETAIL STORE (FOOD)","U OF T SECOND CUP","TORONTO, ON","M5T 2Z9","COLLEGE ST","214 COLLEGE ST,TORONTO, ON,M5T 2Z9",43.6588244,-79.3969597,25,1,26,0.167529998347163
"438","RETAIL STORE (FOOD)","U OF T SECOND CUP","TORONTO, ON","M5S 3E6","ST GEORGE ST","105 ST GEORGE ST,TORONTO, ON,M5S 3E6",43.6652923,-79.3984012435221,25,1,14,1.31138993329824
"439","RETAIL STORE (FOOD)","ELM ST ITALIAN DELICATESSEN","TORONTO, ON","M5G 1H1","ELM ST","15 ELM ST,TORONTO, ON,M5G 1H1",43.6576005,-79.38254,25,1,25,0.291110977996141
"440","RETAIL STORE (FOOD)","NAVS GROCERY","TORONTO, ON","M5V 1A4","BASTION ST","5 BASTION ST,TORONTO, ON,M5V 1A4",43.6361578,-79.4033993,25,1,24,1.15509948968412
"441","RETAIL STORE (FOOD)","SUSHI-Q SOUTH EATON","TORONTO, ON","M5B 2H6","YONGE ST","218 YONGE ST,TORONTO, ON,M5B 2H6",43.6538619,-79.3804695,25,1,30,0.510673766024411
"442","RETAIL STORE (FOOD)","BOOSTER JUICE","TORONTO, ON","M5G 2C4","ELIZABETH ST","200 ELIZABETH ST,TORONTO, ON,M5G 2C4",43.6585876,-79.3881580347815,25,1,26,1.54083879656138
"443","RETAIL STORE (FOOD)","HERO CERTIFIED BURGERS","TORONTO, ON","M5G 2C4","ELIZABETH ST","200 ELIZABETH ST,TORONTO, ON,M5G 2C4",43.6585876,-79.3881580347815,25,1,26,0.234639384318143
"444","RETAIL STORE (FOOD)","SWEET MAGIC","TORONTO, ON","M5T 3B3","SPADINA AVE","222 SPADINA AVE,TORONTO, ON,M5T 3B3",43.6509933,-79.3977969,25,1,26,0.0436095702460637
"445","RETAIL STORE (FOOD)","L'AMOUR BEAUTY","TORONTO, ON","M5G 1C3","DUNDAS ST W","136 DUNDAS ST W,TORONTO, ON,M5G 1C3",43.6555945,-79.38480725,25,1,24,0.539461391512305
"446","RETAIL STORE (FOOD)","SPICE 66","TORONTO, ON","M5B 1R7","YONGE ST","335 YONGE ST,TORONTO, ON,M5B 1R7",43.65733055,-79.38094975,25,1,19,0.137315802267007
"447","RETAIL STORE (FOOD)","DANISH PASTRY HOUSE","TORONTO, ON","M5H 3Y2","KING ST W","40 KING ST W,TORONTO, ON,M5H 3Y2",43.64949675,-79.3795651438561,25,1,25,0.290381996892393
"448","RETAIL STORE (FOOD)","PANCHO'S BAKERY INC","TORONTO, ON","M5J 2G8","QUEENS QUAY W","235 QUEENS QUAY W,TORONTO, ON,M5J 2G8",43.6384685,-79.3825027,25,1,26,1.4587038642818
"449","RETAIL STORE (FOOD)","PANCHO'S BAKERY INC","TORONTO, ON","M5J 2G8","QUEENS QUAY W","235 QUEENS QUAY W,TORONTO, ON,M5J 2G8",43.6384685,-79.3825027,25,1,30,2.18773999085372
"450","RETAIL STORE (FOOD)","PANCHO'S BAKERY INC","TORONTO, ON","M5J 2G8","QUEENS QUAY W","235 QUEENS QUAY W,TORONTO, ON,M5J 2G8",43.6384685,-79.3825027,25,1,21,0.608099046628922
"451","RETAIL STORE (FOOD)","THE BAGEL STOP","TORONTO, ON","M5K 1A1","BAY ST","222 BAY ST,TORONTO, ON,M5K 1A1",43.6477148666667,-79.3800040666667,25,1,20,1.92191864355447
"452","RETAIL STORE (FOOD)","PANCHO'S BAKERY INC","TORONTO, ON","M5J 2G8","QUEENS QUAY W","235 QUEENS QUAY W,TORONTO, ON,M5J 2G8",43.6384685,-79.3825027,25,1,27,0.984970236817978
"453","RETAIL STORE (FOOD)","MARCHELEO'S MARKETPLACE","TORONTO, ON","M5G 2C2","BAY ST","595 BAY ST,TORONTO, ON,M5G 2C2",43.656009,-79.383069,25,1,16,0.149591285735369
"454","RETAIL STORE (FOOD)","SHOPPERS DRUG MART #1321","TORONTO, ON","M5V 3A6","QUEENS QUAY W","390 QUEENS QUAY W,TORONTO, ON,M5V 3A6",43.6381429,-79.3907469,25,1,27,0.172910997644067
"455","RETAIL STORE (FOOD)","VIETLICIOUS","TORONTO, ON","M5B 1R7","YONGE ST","335 YONGE ST,TORONTO, ON,M5B 1R7",43.65733055,-79.38094975,25,1,25,1.39200859314457
"456","RETAIL STORE (FOOD)","O.B.SUZUME","TORONTO, ON","M5T 2W6","DUNDAS ST W","707 DUNDAS ST W,TORONTO, ON,M5T 2W6",43.6519938,-79.4048143,25,1,28,0.0115538426603172
"457","RETAIL STORE (FOOD)","PUMPERNICKLE'S CATERING","TORONTO, ON","M5J 2V5","YORK ST","25 YORK ST,TORONTO, ON,M5J 2V5",43.64337215,-79.3812452198061,25,1,35,0.251671891043991
"458","RETAIL STORE (FOOD)","FOUND COFFEE","TORONTO, ON","M5T 1S3","COLLEGE ST","324 COLLEGE ST,TORONTO, ON,M5T 1S3",43.6576389,-79.4026199,25,1,30,0.0783387199044228
"459","RETAIL STORE (FOOD)","MAMA LEE'S KOREAN KITCHEN","TORONTO, ON","M5E 2A1","YONGE ST","16 YONGE ST,TORONTO, ON,M5E 2A1",43.6432399,-79.3760682,25,1,29,0.296084284669478
"460","RETAIL STORE (FOOD)","BUBBLE BABY BUBBLE TEA & BUBBLE EGG","TORONTO, ON","M5J 1B5","QUEENS QUAY W","258 QUEENS QUAY W,TORONTO, ON,M5J 1B5",43.639205,-79.385444,25,1,15,2.8304533689978
"461","RETAIL STORE (FOOD)","TIM HORTONS","TORONTO, ON","M5R 2E6","DUPONT ST","150 DUPONT ST,TORONTO, ON,M5R 2E6",43.6757672,-79.4034806,25,1,26,1.45368390097939
"462","RETAIL STORE (FOOD)","TIM HORTONS","TORONTO, ON","M5R 3H2","BATHURST ST","1110 BATHURST ST,TORONTO, ON,M5R 3H2",43.6732741,-79.4146252,25,1,28,0.82844753045544
"463","RETAIL STORE (FOOD)","OLD NAVY","TORONTO, ON","M5B 2L9","YONGE ST","260 YONGE ST,TORONTO, ON,M5B 2L9",43.6553085,-79.3814992,25,1,19,1.43284035093131
"464","RETAIL STORE (FOOD)","MINISO LIFESTYLE CANADA","TORONTO, ON","M5H 1T1","ADELAIDE ST W","120 ADELAIDE ST W,TORONTO, ON,M5H 1T1",43.6498399,-79.3829534,25,1,26,0.581412001512945
"465","RETAIL STORE (FOOD)","MINISO LIFESTYLE CANADA","TORONTO, ON","M5B 2H1","YONGE ST","220 YONGE ST,TORONTO, ON,M5B 2H1",43.6541457,-79.3807927664679,25,1,23,2.4335655736408
"466","RETAIL STORE (FOOD)","MINISO CANADA","TORONTO, ON","M5V 1Z4","QUEEN ST W","219 QUEEN ST W,TORONTO, ON,M5V 1Z4",43.6504219,-79.3884961,25,1,36,3.40137065185194
"467","RETAIL STORE (FOOD)","THAI EXPRESS","TORONTO, ON","M5S 1B2","GRENVILLE ST","76 GRENVILLE ST,TORONTO, ON,M5S 1B2",43.66173045,-79.3875392296137,25,1,28,0.0619350597262383
"468","RETAIL STORE (FOOD)","FARM BOY COMPANY","TORONTO, ON","M5G 2C8","R BAY ST","777 R BAY ST,TORONTO, ON,M5G 2C8",43.6607076,-79.3858018,25,1,22,1.44979279693726
"469","RETAIL STORE (FOOD)","DISTRICT PIZZA","TORONTO, ON","M5A 3C4","GRISTMILL LANE","32 GRISTMILL LANE,TORONTO, ON,M5A 3C4",43.6499675,-79.3607889,25,1,20,0.643720469903201
"470","RETAIL STORE (FOOD)","PARAMOUNT LEBANESE KITCHEN","TORONTO, ON","M5J 2T3","BAY ST","181 BAY ST,TORONTO, ON,M5J 2T3",43.6465062,-79.3786735,25,1,22,1.15551070492239
"471","RETAIL STORE (FOOD)","LINDT & SPRUNGLI","TORONTO, ON","M5B 2H1","YONGE ST","220 YONGE ST,TORONTO, ON,M5B 2H1",43.6541457,-79.3807927664679,25,1,23,0.497789244965993
"472","RETAIL STORE (FOOD)","THE KENSIGNTON VARIETY","TORONTO, ON","M5T 2K1","KENSINGTON AVE","56D KENSINGTON AVE,TORONTO, ON,M5T 2K1",43.6534465,-79.4002002,25,1,31,1.8684619881361
"473","RETAIL STORE (FOOD)","INS MARKET #5525","TORONTO, ON","M5E 1E5","YONGE ST","1 YONGE ST,TORONTO, ON,M5E 1E5",43.6423228,-79.3744327882227,25,1,19,0.462751718703657
"474","RETAIL STORE (FOOD)","HAPPY BURGER","TORONTO, ON","M5S 2P1","LIPPINCOTT ST","76 LIPPINCOTT ST,TORONTO, ON,M5S 2P1",43.6571113421053,-79.4068031105263,25,1,28,0.576333767734468
"475","RETAIL STORE (FOOD)","SULTAN'S MEDITERRANEAN GRILL","TORONTO, ON","M5J 2J1","BAY ST","200 BAY ST,TORONTO, ON,M5J 2J1",43.64636145,-79.379754855364,25,1,27,1.79888532488587
"476","RETAIL STORE (FOOD)","TIM HORTON'S","TORONTO, ON","M5V 3C7","WELLINGTON ST W","200 WELLINGTON ST W,TORONTO, ON,M5V 3C7",43.645944,-79.387904,25,1,29,0.445542962756008
"477","RETAIL STORE (FOOD)","MOTO VIA","TORONTO, ON","M5M 3Y8","AVENUE RD","1775 AVENUE RD,TORONTO, ON,M5M 3Y8",43.7295547666667,-79.4183328888889,25,1,24,1.17685298710586
"478","RETAIL STORE (FOOD)","GNC","TORONTO, ON","M5B 2H6","YONGE ST","218 YONGE ST,TORONTO, ON,M5B 2H6",43.6538619,-79.3804695,25,1,25,0.862141115548921
"479","RETAIL STORE (FOOD)","GRANGE LOTTERY & NEWS","TORONTO, ON","M5T 3K5","MCCAUL ST","109 MCCAUL ST,TORONTO, ON,M5T 3K5",43.6536772,-79.3908145,25,1,26,0.203665537425954
"480","RETAIL STORE (FOOD)","CANA FOOD","TORONTO, ON","M5B 1R7","YONGE ST","335 YONGE ST,TORONTO, ON,M5B 1R7",43.65733055,-79.38094975,25,1,29,0.196791173468572
"481","RETAIL STORE (FOOD)","FLAME & SMOKE","TORONTO, ON","M5T 2W6","DUNDAS ST W","707 DUNDAS ST W,TORONTO, ON,M5T 2W6",43.6519938,-79.4048143,25,1,29,0.0219868505373597
"482","RETAIL STORE (FOOD)","SHOPPERS DRUG MART","TORONTO, ON","M5B 2H1","YONGE ST","220 YONGE ST,TORONTO, ON,M5B 2H1",43.6541457,-79.3807927664679,25,1,26,1.23301114230872
"483","RETAIL STORE (FOOD)","BENTO SUSHI","TORONTO, ON","M5G 2C4","ELIZABETH ST","200 ELIZABETH ST,TORONTO, ON,M5G 2C4",43.6585876,-79.3881580347815,25,1,30,0.569050644058734
"484","RETAIL STORE (FOOD)","LUBA'S GOURMET COFFEE AND TEA BOUTIQUE","TORONTO, ON","M5E 1C2","FRONT ST E","91 FRONT ST E,TORONTO, ON,M5E 1C2",43.649111,-79.37197,25,1,27,0.402899388689548
"485","RETAIL STORE (FOOD)","TORTILLERIA EL TROMPO","TORONTO, ON","M5T 2M1","AUGUSTA AVE","279 AUGUSTA AVE,TORONTO, ON,M5T 2M1",43.6558404,-79.4024126,25,1,10,2.00355982213261
"486","RETAIL STORE (FOOD)","MARQ'S CHICAGO BEEF","TORONTO, ON","M5T 2W6","DUNDAS ST W","707 DUNDAS ST W,TORONTO, ON,M5T 2W6",43.6519938,-79.4048143,25,1,27,0.343986391385471
"487","RETAIL STORE (FOOD)","BIG BEAR PANCAKES","TORONTO, ON","M5T 3B3","SPADINA AVE","222 SPADINA AVE,TORONTO, ON,M5T 3B3",43.6509933,-79.3977969,25,1,31,0.730536211240006
"488","RETAIL STORE (FOOD)","FRESHCO","TORONTO, ON","M5T 2S6","BATHURST ST","410 BATHURST ST,TORONTO, ON,M5T 2S6",43.6542022,-79.4069764,25,1,28,2.81300941514748
"489","RETAIL STORE (FOOD)","BRUNCHIN'","TORONTO, ON","M5B 1R7","YONGE ST","335 YONGE ST,TORONTO, ON,M5B 1R7",43.65733055,-79.38094975,25,1,27,0.919984842277291
"490","RETAIL STORE (FOOD)","PULP ON PORTLAND (POP) INC","TORONTO, ON","M5V 2M9","PORTLAND ST","67 PORTLAND ST,TORONTO, ON,M5V 2M9",43.6436642,-79.3994127,25,1,27,0.207976117162745
"491","RETAIL STORE (FOOD)","INTERNATIONAL NEWS","TORONTO, ON","M5E 1B8","FRONT ST E","79 FRONT ST E,TORONTO, ON,M5E 1B8",43.648649,-79.3729003,25,1,26,0.487618761602789
"492","RETAIL STORE (FOOD)","LITTLE BANH MI SHOP","TORONTO, ON","M5T 2W6","DUNDAS ST W","707 DUNDAS ST W,TORONTO, ON,M5T 2W6",43.6519938,-79.4048143,25,1,20,0.923824600833368
"493","RETAIL STORE (FOOD)","AT JAYY'S CHEERS CONVENIENCE","TORONTO, ON","M5A 4P5","THE ESPLANADE","140 THE ESPLANADE,TORONTO, ON,M5A 4P5",43.6485714,-79.3701379,25,1,19,1.32693953901054
"494","RETAIL STORE (FOOD)","HABERS PHARMACY","TORONTO, ON","M5M 3Y8","AVENUE RD","1783 AVENUE RD,TORONTO, ON,M5M 3Y8",43.7297082333333,-79.4183925777778,25,1,14,1.14854981187255
"495","RETAIL STORE (FOOD)","TIM HORTONS","TORONTO, ON","M5J 1E6","FRONT ST W","65 FRONT ST W,TORONTO, ON,M5J 1E6",43.6440963,-79.3810054,25,1,16,0.535583158023655
"496","RETAIL STORE (FOOD)","TORONTO HAPPY GO GIFT CENTER","TORONTO, ON","M5T 2E4","SPADINA AVE","262 SPADINA AVE,TORONTO, ON,M5T 2E4",43.6522537,-79.3978792,25,1,17,0.902202513026905
"497","RETAIL STORE (FOOD)","00GELATO","TORONTO, ON","M5V 1J9","KING ST W","370 KING ST W,TORONTO, ON,M5V 1J9",43.64645425,-79.3918087956904,25,1,34,0.541231024079025
"498","RETAIL STORE (FOOD)","PATISSERIE JULES","TORONTO, ON","M4S 2M5","MOUNT PLEASANT RD","617 MOUNT PLEASANT RD,TORONTO, ON,M4S 2M5",43.70413768,-79.38836436,25,1,22,0.539177073631436
"499","RETAIL STORE (FOOD)","PIZZAIOLO","TORONTO, ON","M5S 1X5","BLOOR ST W","416 BLOOR ST W,TORONTO, ON,M5S 1X5",43.665931,-79.40802864,25,1,39,0.604396477807313
"500","RETAIL STORE (FOOD)","VELVET LANE CAKES","TORONTO, ON","M5A 2K8","CARLTON ST","194A CARLTON ST,TORONTO, ON,M5A 2K8",43.6635588,-79.3713684,25,1,36,0.168066449929029
"501","RETAIL STORE (FOOD)","SCOTTY BONS CARIBBEAN GRILL","TORONTO, ON","M5S 1X5","BLOOR ST W","402 BLOOR ST W,TORONTO, ON,M5S 1X5",43.6659809,-79.407746,25,1,16,0.371543310582638
"502","RETAIL STORE (FOOD)","LUCY GROCERY & MEAT STORE","TORONTO, ON","M5A 1S2","QUEEN ST E","213 QUEEN ST E,TORONTO, ON,M5A 1S2",43.6548612,-79.3679253,25,1,28,0.219003286930642
"503","RETAIL STORE (FOOD)","MOUNTAIN EQUIPMENT COMPANY","TORONTO, ON","M5V 2A2","QUEEN ST W","300 QUEEN ST W,TORONTO, ON,M5V 2A2",43.6495968,-79.3938787,25,1,27,0.561838488094509
"504","RETAIL STORE (FOOD)","BOHO GELATO INC","TORONTO, ON","M5T 3K7","BALDWIN ST","160 BALDWIN ST,TORONTO, ON,M5T 3K7",43.6550566,-79.3998561,25,1,27,1.38657877036916
"505","RETAIL STORE (FOOD)","SHOPPERS DRUG MART #1351","TORONTO, ON","M5E 1N1","LOWER JARVIS ST","18 LOWER JARVIS ST,TORONTO, ON,M5E 1N1",43.6476414,-79.3709362,25,1,31,0.934451056602311
"506","RETAIL STORE (FOOD)","COMPASS GROUP CANADA","TORONTO, ON","M5N 2H9","AVENUE RD","1451 AVENUE RD,TORONTO, ON,M5N 2H9",43.7205045,-79.4134241213453,25,1,21,0.191000126302242
"507","RETAIL STORE (FOOD)","TASTET BATHURST","TORONTO, ON","M5T 2S6","BATHURST ST","410 BATHURST ST,TORONTO, ON,M5T 2S6",43.6542022,-79.4069764,25,1,21,0.621092752087861
"508","RETAIL STORE (FOOD)","INS MARKET","TORONTO, ON","M5A 3W8","KING ST E","200 KING ST E,TORONTO, ON,M5A 3W8",43.651419,-79.3702911199528,25,1,30,0.0337372282519937
"509","RETAIL STORE (FOOD)","TORONTO METROPOLITAN UNIVERSITY","TORONTO, ON","M5B 1Z5","CHURCH ST","288 CHURCH ST,TORONTO, ON,M5B 1Z5",43.65704575,-79.3777050114327,25,1,22,0.840092171872866
"510","RETAIL STORE (FOOD)","THE BAGEL STOP","TORONTO, ON","M5J 2S1","BAY ST","161 BAY ST,TORONTO, ON,M5J 2S1",43.6469242,-79.3786575,25,1,23,0.46116697601974
"511","RETAIL STORE (FOOD)","ETHIO-ERI CAFE INC","TORONTO, ON","M5T 2W6","DUNDAS ST W","707 DUNDAS ST W,TORONTO, ON,M5T 2W6",43.6519938,-79.4048143,25,1,28,0.0398527947929768
"512","RETAIL STORE (FOOD)","FARM BOY","TORONTO, ON","M5J 1A7","QUEENS QUAY W","207 QUEENS QUAY W,TORONTO, ON,M5J 1A7",43.638257,-79.3805002,25,1,31,0.316836051642895
"513","RETAIL STORE (FOOD)","VIDA MARKET","TORONTO, ON","M5T 1M1","BALDWIN ST","193 BALDWIN ST,TORONTO, ON,M5T 1M1",43.6545339,-79.4014113,25,1,15,1.08245884809167
"514","RETAIL STORE (FOOD)","URBAN THAI STORE 2","TORONTO, ON","M5A 3A1","PARLIAMENT ST","415 PARLIAMENT ST,TORONTO, ON,M5A 3A1",43.6624476222222,-79.3670371777778,25,1,27,0.99448191999904
"515","RETAIL STORE (FOOD)","INTERNATIONAL NEWS","TORONTO, ON","M5J 1T1","UNIVERSITY AVE","40 UNIVERSITY AVE,TORONTO, ON,M5J 1T1",43.6461433,-79.3842315,25,1,20,0.874088999103583
"516","RETAIL STORE (FOOD)","CHASKA EXPRESS","TORONTO, ON","M5G 2C2","BAY ST","595 BAY ST,TORONTO, ON,M5G 2C2",43.656009,-79.383069,25,1,24,0.0564552065916359
"517","RETAIL STORE (FOOD)","KARMAS KITCHEN-140 ESPLANADE","TORONTO, ON","M5A 4P5","THE ESPLANADE","140 THE ESPLANADE,TORONTO, ON,M5A 4P5",43.6485714,-79.3701379,25,1,22,0.308669662455226
"518","RETAIL STORE (FOOD)","PIZZA PIZZA","TORONTO, ON","M5J 1E6","FRONT ST W","65 FRONT ST W,TORONTO, ON,M5J 1E6",43.6440963,-79.3810054,25,1,23,2.27222172332794
"519","RETAIL STORE (FOOD)","INS MARKET","TORONTO, ON","M5J 2N8","BAY ST","20 BAY ST,TORONTO, ON,M5J 2N8",43.6416849,-79.3778218,25,1,13,0.418810117058456
"520","RETAIL STORE (FOOD)","SHOPPERS DRUG MART","TORONTO, ON","M5J 2S1","BAY ST","161 BAY ST,TORONTO, ON,M5J 2S1",43.6469242,-79.3786575,25,1,25,0.136869290377945
"521","RETAIL STORE (FOOD)","GLOBOL FOODTECH","TORONTO, ON","M5B 1J2","CARLTON ST","60 CARLTON ST,TORONTO, ON,M5B 1J2",43.6620397,-79.3801385,25,1,26,1.57042885749581
"522","RETAIL STORE (FOOD)","UNIQUE GIFT & CONVENIENCE","TORONTO, ON","M5J 1E3","FRONT ST W","100 FRONT ST W,TORONTO, ON,M5J 1E3",43.6459008,-79.3814993,25,1,16,0.250862021930516
"523","RETAIL STORE (FOOD)","RICHIE'S NEIGHBOURHOOD STORE","TORONTO, ON","M5E 1M2","CHURCH ST","15 CHURCH ST,TORONTO, ON,M5E 1M2",43.648130225,-79.373493725,25,1,23,1.6575352069761
"524","RETAIL STORE (FOOD)","ALTERNITY","TORONTO, ON","M5S 1W7","BLOOR ST W","333 BLOOR ST W,TORONTO, ON,M5S 1W7",43.6673698,-79.4005613,25,1,29,0.524082838769904
"525","RETAIL STORE (FOOD)","MEAN BAO","TORONTO, ON","M5J 1E6","FRONT ST W","71 FRONT ST W,TORONTO, ON,M5J 1E6",43.6454993,-79.3813327,25,1,35,0.286615893710405
"526","RETAIL STORE (FOOD)","ANNEX MART","TORONTO, ON","M5S 1Y5","BLOOR ST W","535 BLOOR ST W,TORONTO, ON,M5S 1Y5",43.6653143,-79.4096593,25,1,26,1.01069697081567
"527","RETAIL STORE (FOOD)","RC COFFEE","TORONTO, ON","M5G 2C4","ELIZABETH ST","200 ELIZABETH ST,TORONTO, ON,M5G 2C4",43.6585876,-79.3881580347815,25,1,27,0.420148248784244
"528","RETAIL STORE (FOOD)","SULEE DOSIRAK","TORONTO, ON","M5T 2W6","DUNDAS ST W","707 DUNDAS ST W,TORONTO, ON,M5T 2W6",43.6519938,-79.4048143,25,1,32,1.48986220889381
"529","RETAIL STORE (FOOD)","241 PIZZA","TORONTO, ON","M5A 3A3","PARLIAMENT ST","451 PARLIAMENT ST,TORONTO, ON,M5A 3A3",43.6634246,-79.3674314,25,1,31,0.146046398207545
"530","RETAIL STORE (FOOD)","ZEN KYOTO","TORONTO, ON","M5X 1B1","KING ST W","100 KING ST W,TORONTO, ON,M5X 1B1",43.6487681,-79.3816917928303,25,1,31,1.62130515389921
"531","RETAIL STORE (FOOD)","TINY MARKET CO.","TORONTO, ON","M5R 3G5","BATHURST ST","938 BATHURST ST,TORONTO, ON,M5R 3G5",43.6687847153846,-79.4128317538461,25,1,27,0.206144352443516
"532","RETAIL STORE (FOOD)","LETT'US ROLL","TORONTO, ON","M5B 1R7","YONGE ST","335 YONGE ST,TORONTO, ON,M5B 1R7",43.65733055,-79.38094975,25,1,17,2.68353954131219
"533","RETAIL STORE (FOOD)","MEDICAL PHARMACY","TORONTO, ON","M5T 3A9","COLLEGE ST","340 COLLEGE ST,TORONTO, ON,M5T 3A9",43.6574485,-79.4036825,25,1,28,0.26662765070796
"534","RETAIL STORE (FOOD)","BENKEI HIME","TORONTO, ON","M5B 2H1","YONGE ST","220 YONGE ST,TORONTO, ON,M5B 2H1",43.6541457,-79.3807927664679,25,1,18,0.510694302618504
"535","RETAIL STORE (FOOD)","NOUSHE","TORONTO, ON","M5A 2L1","CARLTON ST","200 CARLTON ST,TORONTO, ON,M5A 2L1",43.6638574,-79.3705021,25,1,17,0.361018024384975
"536","RETAIL STORE (FOOD)","DANISH PASTRY HOUSE","TORONTO, ON","M5G 2C4","ELIZABETH ST","200 ELIZABETH ST,TORONTO, ON,M5G 2C4",43.6585876,-79.3881580347815,25,1,25,0.488490096853446
"537","RETAIL STORE (FOOD)","CITY LIFE PHARMACY","TORONTO, ON","M5J 3A6","LOWER SIMCOE ST","35 LOWER SIMCOE ST,TORONTO, ON,M5J 3A6",43.6419389,-79.3835647,25,1,29,1.03110928549887
"538","RETAIL STORE (FOOD)","RC COFFEE","TORONTO, ON","M5T 3K7","BALDWIN ST","160 BALDWIN ST,TORONTO, ON,M5T 3K7",43.6550566,-79.3998561,25,1,23,1.18256692118467
"539","RETAIL STORE (FOOD)","SOL PIZZA","TORONTO, ON","M5S 3A5","BAY ST","1033 BAY ST,TORONTO, ON,M5S 3A5",43.6659781,-79.3875905,25,1,21,0.445322250947356
"540","RETAIL STORE (FOOD)","GONG CHA","TORONTO, ON","M5B 2H1","YONGE ST","220 YONGE ST,TORONTO, ON,M5B 2H1",43.6541457,-79.3807927664679,25,1,24,0.898716210345638
"541","RETAIL STORE (FOOD)","NEW YORK NEWS","TORONTO, ON","M5V 2X3","FRONT ST W","225 FRONT ST W,TORONTO, ON,M5V 2X3",43.64418125,-79.3853033276691,25,1,22,0.914177307735658
"542","RETAIL STORE (FOOD)","PANTRY","TORONTO, ON","M5H 1T1","ADELAIDE ST W","120 ADELAIDE ST W,TORONTO, ON,M5H 1T1",43.6498399,-79.3829534,25,1,30,0.758835441538117
"543","RETAIL STORE (FOOD)","STAPLES CANADA","TORONTO, ON","M5G 2J5","UNIVERSITY AVE","375 UNIVERSITY AVE,TORONTO, ON,M5G 2J5",43.6534649,-79.3869954446005,25,1,29,0.988545178393734
"544","RETAIL STORE (FOOD)","STAPLES CANADA","TORONTO, ON","M5C 1S8","YONGE ST","85-89 YONGE ST,TORONTO, ON,M5C 1S8",43.6720053,-79.3874759,25,1,20,1.80774655557218
"545","RETAIL STORE (FOOD)","SANSOTEI RAMEN EATON CENTRE","TORONTO, ON","M5B 2H1","YONGE ST","220 YONGE ST,TORONTO, ON,M5B 2H1",43.6541457,-79.3807927664679,25,1,20,0.19936074450353
"546","RETAIL STORE (FOOD)","LONGO'S","TORONTO, ON","M5X 1A9","KING ST W","100 KING ST W,TORONTO, ON,M5X 1A9",43.6487681,-79.3816917928303,25,1,36,0.035499919205904
"547","RETAIL STORE (FOOD)","FRUTA LIBRE","TORONTO, ON","M5B 1R7","YONGE ST","335 YONGE ST,TORONTO, ON,M5B 1R7",43.65733055,-79.38094975,25,1,22,2.66751173684809
"548","RETAIL STORE (FOOD)","CRUMBS PATTIES","TORONTO, ON","M5T 3K7","BALDWIN ST","160 BALDWIN ST,TORONTO, ON,M5T 3K7",43.6550566,-79.3998561,25,1,27,0.798177616333178
"549","RETAIL STORE (FOOD)","FRESHII","TORONTO, ON","M5B 2H1","YONGE ST","220 YONGE ST,TORONTO, ON,M5B 2H1",43.6541457,-79.3807927664679,25,1,28,0.489237068686634
"550","RETAIL STORE (FOOD)","TEPPANYAKI GRILL","TORONTO, ON","M5H 3M9","QUEEN ST W","123 QUEEN ST W,TORONTO, ON,M5H 3M9",43.6511085,-79.383474444692,25,1,26,0.156523578800261
"551","RETAIL STORE (FOOD)","6IX FRIED CHICKEN","TORONTO, ON","M5B 1R7","YONGE ST","335 YONGE ST,TORONTO, ON,M5B 1R7",43.65733055,-79.38094975,25,1,24,0.462568432036032
"552","RETAIL STORE (FOOD)","LA CATRINA TACOS","TORONTO, ON","M5T 2L6","AUGUSTA AVE","214 AUGUSTA AVE,TORONTO, ON,M5T 2L6",43.6547204,-79.4022615444444,25,1,23,0.211574068292975
"553","RETAIL STORE (FOOD)","HAPPY SUNDAE","TORONTO, ON","M5V 2M9","PORTLAND ST","85 PORTLAND ST,TORONTO, ON,M5V 2M9",43.6441667,-79.3998259,25,1,28,0.671591992489994
"554","RETAIL STORE (FOOD)","DOLLARAMA","TORONTO, ON","M5B 2G9","DUNDAS ST E","10 DUNDAS ST E,TORONTO, ON,M5B 2G9",43.6570352,-79.3804595895349,25,1,26,1.01733560855956
"555","RETAIL STORE (FOOD)","FANCY FRANKS","TORONTO, ON","M5M 3X3","AVENUE RD","1507 AVENUE RD,TORONTO, ON,M5M 3X3",43.7224566,-79.4154936,25,1,28,0.831738251336968
"556","RETAIL STORE (FOOD)","NANCY'S CHEESE","TORONTO, ON","M5R 1V7","DUPONT ST","260 DUPONT ST,TORONTO, ON,M5R 1V7",43.6751164,-79.4065354769231,25,1,19,0.33839123520664
"557","RETAIL STORE (FOOD)","URBAN FARE CATERING","TORONTO, ON","M5R 3H8","BATHURST ST","1415 BATHURST ST,TORONTO, ON,M5R 3H8",43.6813576,-79.41743,25,1,25,0.0624456300297612
"558","RETAIL STORE (FOOD)","T&T SUPERMARKET","TORONTO, ON","M5T 1S2","COLLEGE ST","301 COLLEGE ST,TORONTO, ON,M5T 1S2",43.657462,-79.4015575,25,1,24,2.92179636363754
"559","RETAIL STORE (FOOD)","CANADIAN TIRE","TORONTO, ON","M5G 2C3","DUNDAS ST W","65 DUNDAS ST W,TORONTO, ON,M5G 2C3",43.6556543,-79.3832132,25,1,26,0.175719552673399
"560","RETAIL STORE (FOOD)","TAO TEA LEAF","TORONTO, ON","M5J 1E6","FRONT ST W","65 FRONT ST W,TORONTO, ON,M5J 1E6",43.6440963,-79.3810054,25,1,27,0.621730382554233
"561","RETAIL STORE (FOOD)","SHOPPERS DRUG MART #853","TORONTO, ON","M5A 3A3","PARLIAMENT ST","467 PARLIAMENT ST,TORONTO, ON,M5A 3A3",43.6640057,-79.3676698,25,1,27,0.752869147765351
"562","RETAIL STORE (FOOD)","KIBO SUSHI YONGE","TORONTO, ON","M5E 2A1","YONGE ST","16 YONGE ST,TORONTO, ON,M5E 2A1",43.6432399,-79.3760682,25,1,19,3.72843750358975
"563","RETAIL STORE (FOOD)","OTHERSHIP","TORONTO, ON","M5V 3C1","ADELAIDE ST W","425 ADELAIDE ST W,TORONTO, ON,M5V 3C1",43.6461577,-79.3977835,25,1,24,2.3133408955587
"564","RETAIL STORE (FOOD)","EDO TWH","TORONTO, ON","M5T 2S8","BATHURST ST","399 BATHURST ST,TORONTO, ON,M5T 2S8",43.653567,-79.4054960448721,25,1,23,2.1422942111871
"565","RETAIL STORE (FOOD)","GOPPION CAFFETTERIA","TORONTO, ON","M5V 4A6","FORT YORK BLVD","60 FORT YORK BLVD,TORONTO, ON,M5V 4A6",43.6400533,-79.3963135,25,1,18,0.0885914443060756
"566","RETAIL STORE (FOOD)","MOS MOS","TORONTO, ON","M5H 3Y2","KING ST W","40 KING ST W,TORONTO, ON,M5H 3Y2",43.64949675,-79.3795651438561,25,1,21,0.360856369327924
"567","RETAIL STORE (FOOD)","QUEEN BEAN COFFEE ROASTERS","TORONTO, ON","M5R 3J1","BATHURST ST","1378 BATHURST ST,TORONTO, ON,M5R 3J1",43.6804079578947,-79.4173947894737,25,1,23,3.42280952615624
"568","RETAIL STORE (FOOD)","FRESHII","TORONTO, ON","M5H 3T9","KING ST W","121 KING ST W,TORONTO, ON,M5H 3T9",43.6476852,-79.3829683711884,25,1,30,3.8832996690408
"569","RETAIL STORE (FOOD)","GONG CHA","TORONTO, ON","M5V 0S4","HOUSEY ST","85 HOUSEY ST,TORONTO, ON,M5V 0S4",43.6381443,-79.3990041,25,1,30,0.800356702837062
"570","RETAIL STORE (FOOD)","SALAD DAYS","TORONTO, ON","M5G 2C4","ELIZABETH ST","200 ELIZABETH ST,TORONTO, ON,M5G 2C4",43.6585876,-79.3881580347815,25,1,25,1.81319915122333
"571","RETAIL STORE (FOOD)","NAVS GROCERY","TORONTO, ON","M5J 2T5","QUEENS QUAY W","89 QUEENS QUAY W,TORONTO, ON,M5J 2T5",43.6400047,-79.3794745,25,1,16,0.694273331160557
"572","RETAIL STORE (FOOD)","SWISS ART CHOCOLATIER ON YORKVILLE","TORONTO, ON","M5R 1B9","YORKVILLE AVE","70 YORKVILLE AVE,TORONTO, ON,M5R 1B9",43.6715217,-79.3908954668323,25,1,27,0.303295474499464
"573","RETAIL STORE (FOOD)","CHILACA TACOS","TORONTO, ON","M5T 2L6","AUGUSTA AVE","214 AUGUSTA AVE,TORONTO, ON,M5T 2L6",43.6547204,-79.4022615444444,25,1,23,0.664319538511336
"574","RETAIL STORE (FOOD)","THE POKE BOX","TORONTO, ON","M5J 2S1","BAY ST","161 BAY ST,TORONTO, ON,M5J 2S1",43.6469242,-79.3786575,25,1,18,0.0309205951365361
"575","RETAIL STORE (FOOD)","CIRCLE K","TORONTO, ON","M5G 1C3","DUNDAS ST W","144-148 DUNDAS ST W,TORONTO, ON,M5G 1C3",43.6557055,-79.3838645,25,1,25,0.437835772521794
