"","Category","Operating.Name","city","Zip","Street","Address","lat","long","lamda","mu","sigma","qCustomer","tCustomer","tCustomer_min"
"1","PRIVATE PARKING ENFORCEMENT AGENCY","BLACK & MCDONALD LTD","TORONTO, ON","M5S 1B2","GRENVILLE ST","76 GRENVILLE ST,TORONTO, ON,M5S 1B2",43.66173045,-79.3875392296137,5,0.33,0.5,5,0.469866224254171,28.1919734552503
"2","PRIVATE PARKING ENFORCEMENT AGENCY","MI SECURITY CORP","TORONTO, ON","M5R 3H8","BATHURST ST","1415 BATHURST ST,TORONTO, ON,M5R 3H8",43.6813576,-79.41743,5,0.33,0.5,2,4.90048785075824,294.029271045494
"3","PRIVATE PARKING ENFORCEMENT AGENCY","UNIVERSITY OF TORONTO","TORONTO, ON","M5S 1A1","KING'S COLLEGE CIR","27 KING'S COLLEGE CIR,TORONTO, ON,M5S 1A1",43.6607231,-79.3959200184599,5,0.33,0.5,6,0.799026923028357,47.9416153817014
"4","DRIVING SCHOOL OPERATOR (B)","LEARNER'S ACADEMY DRIVING SCHOOL LTD","TORONTO, ON","M6H 1M3","BLOOR ST W","1056 BLOOR ST W,TORONTO, ON,M6H 1M3",43.6605582,-79.4325718,5,1,0.5,2,0.770017544696939,46.2010526818163
"5","DRIVING SCHOOL OPERATOR (B)","TORONTO CENTRAL DRIVING SCHOOL","TORONTO, ON","M5T 3B3","SPADINA AVE","222 SPADINA AVE,TORONTO, ON,M5T 3B3",43.6509933,-79.3977969,5,1,0.5,2,1.00642482280256,60.3854893681534
"6","DRIVING SCHOOL OPERATOR (B)","CFM DRIVING SCHOOL CORP","TORONTO, ON","M6H 3S4","MARGUERETTA ST","183 MARGUERETTA ST,TORONTO, ON,M6H 3S4",43.6549871368705,-79.4386538667816,5,1,0.5,4,1.10791378091545,66.4748268549271
"7","DRIVING SCHOOL OPERATOR (B)","CHUNGHWA DRIVING SCHOOL","TORONTO, ON","M5T 3A5","SPADINA AVE","280 SPADINA AVE,TORONTO, ON,M5T 3A5",43.6526523,-79.3985239,5,1,0.5,7,1.11431713333132,66.8590279998789
"8","DRIVE-SELF RENTAL OWNER","BUDGETCAR","TORONTO, ON","M5T 1S2","COLLEGE ST","333 COLLEGE ST,TORONTO, ON,M5T 1S2",43.6573081333333,-79.4025997333333,10,0.33,0.5,12,0.457947491507024,27.4768494904214
"9","HOLISTIC CENTRE","VICTORIA'S WELLNESS SPA AND REHAB CENTRE","TORONTO, ON","M6J 1W3","DUNDAS ST W","920 DUNDAS ST W,TORONTO, ON,M6J 1W3",43.6510135,-79.4130229,5,1.5,0.5,6,0.162391719573288,9.74350317439727
"10","HOLISTIC CENTRE","NAIL SPA & MASSAGE CLINIC","TORONTO, ON","M6H 1N4","BLOOR ST W","1203B BLOOR ST W,TORONTO, ON,M6H 1N4",43.658853,-79.4396797,5,1.5,0.5,6,0.440233026010295,26.4139815606177
"11","HOLISTIC CENTRE","VIVITA","TORONTO, ON","M6G 1K8","BLOOR ST W","619 BLOOR ST W,TORONTO, ON,M6G 1K8",43.6644146,-79.4139853,5,1.5,0.5,4,0.461684715313216,27.701082918793
"12","HOLISTIC CENTRE","ENERGY SPA","TORONTO, ON","M6G 1K8","BLOOR ST W","631 BLOOR ST W,TORONTO, ON,M6G 1K8",43.6643243,-79.4143864,5,1.5,0.5,4,0.216172781786249,12.9703669071749
"13","HOLISTIC CENTRE","EVERGREEN BEAUTY AND WELLNESS CENTRE","TORONTO, ON","M5T 1G7","DUNDAS ST W","422 DUNDAS ST W,TORONTO, ON,M5T 1G7",43.653616,-79.3952676666667,5,1.5,0.5,4,0.469479465829142,28.1687679497485
"14","HOLISTIC CENTRE","SHIVAGA HEALTH AND WELLNESS","TORONTO, ON","M5T 2E9","SPADINA AVE","327 SPADINA AVE,TORONTO, ON,M5T 2E9",43.6546206,-79.3983912,5,1.5,0.5,6,2.17580888160788,130.548532896473
"15","HOLISTIC CENTRE","KING THAI MASSAGE HEALTH CARE CENTRE","TORONTO, ON","M4V 1K6","ST CLAIR AVE W","15 ST CLAIR AVE W,TORONTO, ON,M4V 1K6",43.6877829,-79.3947328,5,1.5,0.5,2,1.62847721692465,97.7086330154791
"16","HOLISTIC CENTRE","JJ ELITE SPA","TORONTO, ON","M5S 1W5","BLOOR ST W","322 1/2 BLOOR ST W,TORONTO, ON,M5S 1W5",43.6534817,-79.3839347,5,1.5,0.5,5,0.689697396603036,41.3818437961822
"17","HOLISTIC CENTRE","SUMMER SUN SPA","TORONTO, ON","M5T 1G7","DUNDAS ST W","430 DUNDAS ST W,TORONTO, ON,M5T 1G7",43.653586,-79.395415,5,1.5,0.5,4,0.137281602173119,8.23689613038716
"18","HOLISTIC CENTRE","BAMBOO GARDEN HEALTH CENTRE","TORONTO, ON","M5T 1G7","DUNDAS ST W","424 DUNDAS ST W,TORONTO, ON,M5T 1G7",43.6536085,-79.3953045,5,1.5,0.5,2,0.0685324931234177,4.11194958740506
"19","HOLISTIC CENTRE","HAPPY YORKVILLE FOOT SPA","TORONTO, ON","M5R 1B9","YORKVILLE AVE","70 YORKVILLE AVE,TORONTO, ON,M5R 1B9",43.6715217,-79.3908954668323,5,1.5,0.5,6,1.18390583862227,71.0343503173361
"20","HOLISTIC CENTRE","NASHA SPA.","TORONTO, ON","M5T 1G7","DUNDAS ST W","428 DUNDAS ST W,TORONTO, ON,M5T 1G7",43.6535935,-79.3953781666667,5,1.5,0.5,6,0.0917414471306201,5.50448682783721
"21","HOLISTIC CENTRE","ZHEN ZHEN HEALTH CENTRE","TORONTO, ON","M5T 2E7","SPADINA AVE","326 SPADINA AVE,TORONTO, ON,M5T 2E7",43.6536559388889,-79.3986168611111,5,1.5,0.5,6,0.855905794200111,51.3543476520066
"22","HOLISTIC CENTRE","EASTERN BAY SPA","TORONTO, ON","M5R 1B8","YORKVILLE AVE","69 YORKVILLE AVE,TORONTO, ON,M5R 1B8",43.6710333,-79.3909519,5,1.5,0.5,4,0.47251151098223,28.3506906589338
"23","HOLISTIC CENTRE","EASTERN BAY","TORONTO, ON","M5S 3A5","BAY ST","1033 BAY ST,TORONTO, ON,M5S 3A5",43.6659781,-79.3875905,5,1.5,0.5,1,0.128028367335598,7.68170204013586
"24","ADULT ENTERTAINMENT CLUB","HOUSE OF LANCASTER II/FOXXES DEN","TORONTO, ON","M6H 1N4","BLOOR ST W","1215 BLOOR ST W,TORONTO, ON,M6H 1N4",43.6587716,-79.440087,5,1,0.5,6,2.31217777902696,138.730666741618
"25","PLACE OF AMUSEMENT","E ZHAN","TORONTO, ON","M6J 1T8","DUNDAS ST W","764 DUNDAS ST W,TORONTO, ON,M6J 1T8",43.6522344,-79.4070366,30,1,0.5,26,1.39571265318314,83.7427591909885
"26","PLACE OF AMUSEMENT","NET PLAZA CYBER CAFE","TORONTO, ON","M5T 1R6","COLLEGE ST","267 COLLEGE ST,TORONTO, ON,M5T 1R6",43.6576064,-79.3995305,30,1,0.5,22,0.503807903267443,30.2284741960466
"27","PLACE OF AMUSEMENT","SPLISH SPLASH CONVENIENCE & CLEANING CENTRE","TORONTO, ON","M6G 1B3","COLLEGE ST","590 COLLEGE ST,TORONTO, ON,M6G 1B3",43.6554403,-79.4136374,30,1,0.5,27,0.737564306665686,44.2538583999412
"28","PLACE OF AMUSEMENT","EEXIT YORKVILLE","TORONTO, ON","M5R 1B9","YORKVILLE AVE","70 YORKVILLE AVE,TORONTO, ON,M5R 1B9",43.6715217,-79.3908954668323,30,1,0.5,19,1.07891699295015,64.7350195770092
"29","BILLIARD HALL","BLOOR BAR AND BILLIARDS","TORONTO, ON","M6H 1M3","BLOOR ST W","1050 BLOOR ST W,TORONTO, ON,M6H 1M3",43.6606125,-79.4323576,20,1,0.5,20,0.7675861948681,46.055171692086
"30","BILLIARD HALL","ANNEX BILLIARDS CLUB","TORONTO, ON","M5S 1Y2","BLOOR ST W","507 BLOOR ST W,TORONTO, ON,M5S 1Y2",43.6655159,-79.4082527,20,1,0.5,24,0.556739585008472,33.4043751005083
"31","BILLIARD HALL","THE CITY POOL","TORONTO, ON","M6J 1X8","DUNDAS ST W","1307 DUNDAS ST W,TORONTO, ON,M6J 1X8",43.6493454,-79.4258749,20,1,0.5,21,0.940198028418136,56.4118817050881
"32","BILLIARD HALL","WIGGLE ROOM TORONTO","TORONTO, ON","M6J 1V1","DUNDAS ST W","770 DUNDAS ST W,TORONTO, ON,M6J 1V1",43.6521422,-79.4074891,20,1,0.5,19,1.2013508748264,72.0810524895842
"33","BILLIARD HALL","MR.8 BILLIARDS","TORONTO, ON","M5T 2G5","SPADINA AVE","388 SPADINA AVE,TORONTO, ON,M5T 2G5",43.655558,-79.3994104,20,1,0.5,14,0.774868932776776,46.4921359666066
"34","SMOKE SHOP","RON'S CIGAR STORE","TORONTO, ON","M6J 1G6","QUEEN ST W","934 QUEEN ST W,TORONTO, ON,M6J 1G6",43.6448634,-79.41613,10,0.5,0.5,14,1.76046917020323,105.628150212194
"35","SMOKE SHOP","CHEERS SMOKE SHOP","TORONTO, ON","M5T 2W7","MCCAUL ST","85 MCCAUL ST,TORONTO, ON,M5T 2W7",43.6530943636364,-79.3908077272727,10,0.5,0.5,8,1.99844097287784,119.906458372671
"36","RETAIL STORE (FOOD)","MACELLERIA VENEZIA LTD","TORONTO, ON","M6H 1L1","BLOOR ST W","906 BLOOR ST W,TORONTO, ON,M6H 1L1",43.661961,-79.4263217,30,1,0.5,35,0.851478579258678,51.0887147555207
"37","RETAIL STORE (FOOD)","M D D FAEMA CO","TORONTO, ON","M6G 2C3","DAVENPORT RD","1117 DAVENPORT RD,TORONTO, ON,M6G 2C3",43.6745896,-79.4305733,30,1,0.5,33,0.0133501989807659,0.801011938845954
"38","RETAIL STORE (FOOD)","PENTONE CIGAR STORE","TORONTO, ON","M6H 1V4","WALLACE AVE","176 WALLACE AVE,TORONTO, ON,M6H 1V4",43.6626294,-79.4437428,30,1,0.5,19,0.0969994296319783,5.8199657779187
"39","RETAIL STORE (FOOD)","SUN MING HONG (CANADA) LTD","TORONTO, ON","M5T 1G7","DUNDAS ST W","412 DUNDAS ST W,TORONTO, ON,M5T 1G7",43.6536535,-79.3950835,30,1,0.5,36,0.0627126120962203,3.76275672577322
"40","RETAIL STORE (FOOD)","STRICTLY BULK","TORONTO, ON","M6H 1L4","BLOOR ST W","924 BLOOR ST W,TORONTO, ON,M6H 1L4",43.6617859,-79.4271599,30,1,0.5,29,0.84488838973407,50.6933033840442
"41","RETAIL STORE (FOOD)","SUMMER'S SWEET MEMORIES","TORONTO, ON","M5R 1C1","YORKVILLE AVE","101 YORKVILLE AVE,TORONTO, ON,M5R 1C1",43.670822631579,-79.392261368421,30,1,0.5,33,1.30330664846571,78.1983989079423
"42","RETAIL STORE (FOOD)","HONG PHAT","TORONTO, ON","M6J 1H1","QUEEN ST W","974 QUEEN ST W,TORONTO, ON,M6J 1H1",43.6445155,-79.4178144,30,1,0.5,31,0.278366603888571,16.7019962333143
"43","RETAIL STORE (FOOD)","SANKO TRADING CO","TORONTO, ON","M6J 1E8","QUEEN ST W","730 QUEEN ST W,TORONTO, ON,M6J 1E8",43.6462159,-79.4094358,30,1,0.5,25,1.13103728608743,67.862237165246
"44","RETAIL STORE (FOOD)","HEALTH SERVICE CENTRE","TORONTO, ON","M6H 1L7","BLOOR ST W","971 BLOOR ST W,TORONTO, ON,M6H 1L7",43.6611514,-79.4288289,30,1,0.5,25,0.259126849006861,15.5476109404117
"45","RETAIL STORE (FOOD)","SUGAR & SPICE","TORONTO, ON","M5T 2M1","AUGUSTA AVE","265 AUGUSTA AVE,TORONTO, ON,M5T 2M1",43.6555931428571,-79.4022845428571,30,1,0.5,34,0.611678782850504,36.7007269710302
"46","RETAIL STORE (FOOD)","KENSINGTON FRUIT MARKET","TORONTO, ON","M5T 1K6","ST ANDREW ST","36 ST ANDREW ST,TORONTO, ON,M5T 1K6",43.654162,-79.400269,30,1,0.5,24,0.788463753894301,47.3078252336581
"47","RETAIL STORE (FOOD)","DAVENPORT PHARMACY","TORONTO, ON","M5R 1J3","DAVENPORT RD","219 DAVENPORT RD,TORONTO, ON,M5R 1J3",43.67473825,-79.3960385,30,1,0.5,27,2.44590386921976,146.754232153185
"48","RETAIL STORE (FOOD)","HODO KWAJA","TORONTO, ON","M6G 1K9","BLOOR ST W","656 BLOOR ST W,TORONTO, ON,M6G 1K9",43.6642962727273,-79.4156410181818,30,1,0.5,35,0.0834172931499779,5.00503758899868
"49","RETAIL STORE (FOOD)","CALDENSE BAKERY & PASTRIES","TORONTO, ON","M6J 1X3","DUNDAS ST W","1209 DUNDAS ST W,TORONTO, ON,M6J 1X3",43.6492721,-79.4226346,30,1,0.5,36,0.274566512554884,16.473990753293
"50","RETAIL STORE (FOOD)","TUTTI FRUTTI FAMOUS FOOD","TORONTO, ON","M5T 2K1","KENSINGTON AVE","64 KENSINGTON AVE,TORONTO, ON,M5T 2K1",43.6543885,-79.400678,30,1,0.5,39,0.230681213084608,13.8408727850765
"51","RETAIL STORE (FOOD)","NGUYEN HUONG FOOD CO LTD","TORONTO, ON","M5T 2E7","SPADINA AVE","322 SPADINA AVE,TORONTO, ON,M5T 2E7",43.6536639,-79.398642,30,1,0.5,29,0.661395354662091,39.6837212797254
"52","RETAIL STORE (FOOD)","SUNSHINE VARIETY STORE","TORONTO, ON","M6H 2X8","DOVERCOURT RD","998A DOVERCOURT RD,TORONTO, ON,M6H 2X8",43.6659512,-79.4311859,30,1,0.5,23,0.157836597262989,9.47019583577933
"53","RETAIL STORE (FOOD)","ERVANARIA VICTORIA","TORONTO, ON","M6J 1W3","DUNDAS ST W","920 DUNDAS ST W,TORONTO, ON,M6J 1W3",43.6510135,-79.4130229,30,1,0.5,24,0.0773681260178139,4.64208756106884
"54","RETAIL STORE (FOOD)","GIA PHAT COMPANY","TORONTO, ON","M5T 2L4","AUGUSTA AVE","155 AUGUSTA AVE,TORONTO, ON,M5T 2L4",43.6528143368421,-79.40116435,30,1,0.5,32,0.96367420624466,57.8204523746796
"55","RETAIL STORE (FOOD)","MAGIC HEALTH FOOD","TORONTO, ON","M6G 1K9","BLOOR ST W","646 BLOOR ST W,TORONTO, ON,M6G 1K9",43.664367,-79.415269,30,1,0.5,30,0.384445286821574,23.0667172092944
"56","RETAIL STORE (FOOD)","GREEN FARMS","TORONTO, ON","M5R 3H7","BATHURST ST","1364 BATHURST ST,TORONTO, ON,M5R 3H7",43.6799588,-79.4172258,30,1,0.5,38,0.328932952135801,19.7359771281481
"57","RETAIL STORE (FOOD)","SEA KING FISH STORE","TORONTO, ON","M5T 1M1","BALDWIN ST","189 BALDWIN ST,TORONTO, ON,M5T 1M1",43.6545957,-79.4012042,30,1,0.5,29,0.470888982992619,28.2533389795572
"58","RETAIL STORE (FOOD)","TOYS ""R"" US (CANADA) LTD","TORONTO, ON","M6H 4A9","DUFFERIN ST","900 DUFFERIN ST,TORONTO, ON,M6H 4A9",43.65598005,-79.4357278941842,30,1,0.5,37,3.10812123103027,186.487273861816
"59","RETAIL STORE (FOOD)","MAN TAK HONG","TORONTO, ON","M5T 3B3","SPADINA AVE","222 SPADINA AVE,TORONTO, ON,M5T 3B3",43.6509933,-79.3977969,30,1,0.5,36,0.00976925576105714,0.586155345663428
"60","RETAIL STORE (FOOD)","ZHI FONG TRADING COMPANY","TORONTO, ON","M5T 2K1","KENSINGTON AVE","46 KENSINGTON AVE,TORONTO, ON,M5T 2K1",43.65393,-79.400504,30,1,0.5,26,1.31793849538536,79.0763097231217
"61","RETAIL STORE (FOOD)","WHOLE FOODS MARKET","TORONTO, ON","M5R 3R9","AVENUE RD","87 AVENUE RD,TORONTO, ON,M5R 3R9",43.6719125,-79.395151,30,1,0.5,36,0.441142607014626,26.4685564208776
"62","RETAIL STORE (FOOD)","DOLLAR A M A","TORONTO, ON","M6H 4B1","DUFFERIN ST","900 DUFFERIN ST,TORONTO, ON,M6H 4B1",43.65598005,-79.4357278941842,30,1,0.5,35,0.283749839756638,17.0249903853983
"63","RETAIL STORE (FOOD)","BELLAIR COFFEE PLUS","TORONTO, ON","M5R 2A7","BAY ST","1240 BAY ST,TORONTO, ON,M5R 2A7",43.6703246,-79.3903555,30,1,0.5,37,0.0699516050517559,4.19709630310535
"64","RETAIL STORE (FOOD)","CHA YI CHINESE HERBAL ACUPUNCTURE CENTRE","TORONTO, ON","M5T 3B3","SPADINA AVE","222 SPADINA AVE,TORONTO, ON,M5T 3B3",43.6509933,-79.3977969,30,1,0.5,24,2.44870707566354,146.922424539813
"65","RETAIL STORE (FOOD)","YUE TAK TONG GINSENG AND CHINESE HERBS INC","TORONTO, ON","M5T 3B3","SPADINA AVE","222 SPADINA AVE,TORONTO, ON,M5T 3B3",43.6509933,-79.3977969,30,1,0.5,33,0.479140971321613,28.7484582792968
"66","RETAIL STORE (FOOD)","FAMILY MART","TORONTO, ON","M6J 1G6","QUEEN ST W","930 QUEEN ST W,TORONTO, ON,M6J 1G6",43.6448818,-79.4160421,30,1,0.5,36,0.745631477230089,44.7378886338054
"67","RETAIL STORE (FOOD)","MARKIE PHARMACY","TORONTO, ON","M5R 3K4","BAY ST","1235 BAY ST,TORONTO, ON,M5R 3K4",43.6709531,-79.3897541,30,1,0.5,39,0.562485575565167,33.74913453391
"68","RETAIL STORE (FOOD)","KUAN SHIH YIN VEGETARIAN INC","TORONTO, ON","M5T 2L6","AUGUSTA AVE","192 AUGUSTA AVE,TORONTO, ON,M5T 2L6",43.6543703,-79.4021709,30,1,0.5,22,0.245747006963938,14.7448204178363
"69","RETAIL STORE (FOOD)","P.A.T CENTRAL MARKET","TORONTO, ON","M6G 1L3","BLOOR ST W","675 BLOOR ST W,TORONTO, ON,M6G 1L3",43.66380225,-79.4162583510896,30,1,0.5,25,4.11693398782846,247.016039269708
"70","RETAIL STORE (FOOD)","GRACE MEATS","TORONTO, ON","M6G 1B8","COLLEGE ST","644 COLLEGE ST,TORONTO, ON,M6G 1B8",43.6551211,-79.4159131,30,1,0.5,43,0.244266702327877,14.6560021396726
"71","RETAIL STORE (FOOD)","THE FISH AND SANDWICH","TORONTO, ON","M6G 1B7","COLLEGE ST","657 COLLEGE ST,TORONTO, ON,M6G 1B7",43.6549279,-79.4162674,30,1,0.5,30,7.31575725558114,438.945435334869
"72","RETAIL STORE (FOOD)","PRESS INTERNATIONAL MAGAZINE STORE","TORONTO, ON","M5S 1Y5","BLOOR ST W","537 BLOOR ST W,TORONTO, ON,M5S 1Y5",43.6653197,-79.4097711,30,1,0.5,32,0.47953392425552,28.7720354553312
"73","RETAIL STORE (FOOD)","L & Y TRADINGS","TORONTO, ON","M5T 3B3","SPADINA AVE","222 SPADINA AVE,TORONTO, ON,M5T 3B3",43.6509933,-79.3977969,30,1,0.5,28,1.19967957488717,71.9807744932301
"74","RETAIL STORE (FOOD)","18 SMOKE SHOP & VARIETY","TORONTO, ON","M5T 3B3","SPADINA AVE","222 SPADINA AVE,TORONTO, ON,M5T 3B3",43.6509933,-79.3977969,30,1,0.5,40,1.60043823524358,96.026294114615
"75","RETAIL STORE (FOOD)","SEGOVIA MEAT MARKET","TORONTO, ON","M5T 2L6","AUGUSTA AVE","218 AUGUSTA AVE,TORONTO, ON,M5T 2L6",43.6548164,-79.4022963333333,30,1,0.5,33,0.256120295956825,15.3672177574095
"76","RETAIL STORE (FOOD)","LUCKY DISCOUNT VARIETY","TORONTO, ON","M6H 1M6","BLOOR ST W","1064 BLOOR ST W,TORONTO, ON,M6H 1M6",43.6604762,-79.43313,30,1,0.5,32,0.820252943783042,49.2151766269825
"77","RETAIL STORE (FOOD)","DOLLARAMA","TORONTO, ON","M6H 4K3","LANSDOWNE AVE","800 LANSDOWNE AVE,TORONTO, ON,M6H 4K3",43.6649802,-79.4459528,30,1,0.5,29,0.0064102203563149,0.384613221378894
"78","RETAIL STORE (FOOD)","CORNER DISCOUNT","TORONTO, ON","M6J 1X8","DUNDAS ST W","1333A DUNDAS ST W,TORONTO, ON,M6J 1X8",43.6494932,-79.4266945,30,1,0.5,28,7.48906229021859,449.343737413116
"79","RETAIL STORE (FOOD)","EASY SEAFOOD","TORONTO, ON","M6H 4B1","DUFFERIN ST","900 DUFFERIN ST,TORONTO, ON,M6H 4B1",43.65598005,-79.4357278941842,30,1,0.5,25,1.02278865835603,61.367319501362
"80","RETAIL STORE (FOOD)","STUBBE CHOCOLATES AND PASTRY","TORONTO, ON","M6G 1Z4","DUPONT ST","653 DUPONT ST,TORONTO, ON,M6G 1Z4",43.671547168686,-79.421191080442,30,1,0.5,28,0.884595268430082,53.0757161058049
"81","RETAIL STORE (FOOD)","STEVEN'S GROCERY","TORONTO, ON","M5R 3G6","BATHURST ST","990 BATHURST ST,TORONTO, ON,M5R 3G6",43.670183,-79.4133745,30,1,0.5,29,1.1251852698204,67.5111161892243
"82","RETAIL STORE (FOOD)","NOVA ERA BAKERY & PASTRY","TORONTO, ON","M6J 1X4","DUNDAS ST W","1172 DUNDAS ST W,TORONTO, ON,M6J 1X4",43.6494803,-79.4221222,30,1,0.5,31,1.84718307099285,110.830984259571
"83","RETAIL STORE (FOOD)","THE GREEN POST","TORONTO, ON","M5T 2L4","AUGUSTA AVE","221 AUGUSTA AVE,TORONTO, ON,M5T 2L4",43.6542741526316,-79.4017468,30,1,0.5,28,0.885802466302339,53.1481479781403
"84","RETAIL STORE (FOOD)","DAI KUANG WAH HERB MARKET","TORONTO, ON","M5T 3A5","SPADINA AVE","280 SPADINA AVE,TORONTO, ON,M5T 3A5",43.6526523,-79.3985239,30,1,0.5,31,0.282798295814257,16.9678977488554
"85","RETAIL STORE (FOOD)","METRO #442","TORONTO, ON","M6G 1C5","COLLEGE ST","735 COLLEGE ST,TORONTO, ON,M6G 1C5",43.6542222,-79.4193675341605,30,1,0.5,28,0.107436178328334,6.44617069970005
"86","RETAIL STORE (FOOD)","S MARKET","TORONTO, ON","M6H 1C5","COLLEGE ST","1269 COLLEGE ST,TORONTO, ON,M6H 1C5",43.6509573,-79.4394357,30,1,0.5,27,0.840267037930799,50.4160222758479
"87","RETAIL STORE (FOOD)","PRICE WAR","TORONTO, ON","M6G 1K1","BLOOR ST W","564 BLOOR ST W,TORONTO, ON,M6G 1K1",43.6651573,-79.4116403,30,1,0.5,39,1.74369733399692,104.621840039815
"88","RETAIL STORE (FOOD)","GOLD LEAF FRUITS MARKET","TORONTO, ON","M6G 1K4","BLOOR ST W","610 BLOOR ST W,TORONTO, ON,M6G 1K4",43.6647807,-79.4135068,30,1,0.5,24,0.551801619119942,33.1080971471965
"89","RETAIL STORE (FOOD)","WINNERS (STORE #319)","TORONTO, ON","M6H 4A9","DUFFERIN ST","900 DUFFERIN ST,TORONTO, ON,M6H 4A9",43.65598005,-79.4357278941842,30,1,0.5,23,0.269686793908477,16.1812076345086
"90","RETAIL STORE (FOOD)","WINNERS / HOMESENSE (STORE#379)","TORONTO, ON","M5S 2W7","BLOOR ST W","110 BLOOR ST W,TORONTO, ON,M5S 2W7",43.6696732,-79.392085,30,1,0.5,36,0.427828993182629,25.6697395909578
"91","RETAIL STORE (FOOD)","BRAZIL PORTUGAL BUTCHER (2004)","TORONTO, ON","M6G 1C2","COLLEGE ST","707 COLLEGE ST,TORONTO, ON,M6G 1C2",43.6550122,-79.4182398790239,30,1,0.5,20,2.4071975650641,144.431853903846
"92","RETAIL STORE (FOOD)","GLOBAL CHEESE SHOPPE","TORONTO, ON","M5T 2K1","KENSINGTON AVE","74-76 KENSINGTON AVE,TORONTO, ON,M5T 2K1",43.6534465,-79.4002002,30,1,0.5,32,0.851374685468992,51.0824811281395
"93","RETAIL STORE (FOOD)","SAM JAMES COFFEE BAR","TORONTO, ON","M6G 1G7","HARBORD ST","297 HARBORD ST,TORONTO, ON,M6G 1G7",43.6602502,-79.4154118,30,1,0.5,32,0.264908561483026,15.8945136889815
"94","RETAIL STORE (FOOD)","CHRISTIE CONVENIENCE","TORONTO, ON","M6G 3B1","CHRISTIE ST","3A CHRISTIE ST,TORONTO, ON,M6G 3B1",43.6657906,-79.4192917,30,1,0.5,27,2.20025974685762,132.015584811457
"95","RETAIL STORE (FOOD)","WAL-MART CANADA CORP","TORONTO, ON","M6H 4A9","DUFFERIN ST","900 DUFFERIN ST,TORONTO, ON,M6H 4A9",43.65598005,-79.4357278941842,30,1,0.5,33,0.65946748200804,39.5680489204824
"96","RETAIL STORE (FOOD)","RIVIERA BAKERY LTD","TORONTO, ON","M6G 1B3","COLLEGE ST","576 COLLEGE ST,TORONTO, ON,M6G 1B3",43.6554921,-79.4130928,30,1,0.5,26,1.96794007921485,118.076404752891
"97","RETAIL STORE (FOOD)","SAM'S FOOD STORE","TORONTO, ON","M5T 1S2","COLLEGE ST","339 COLLEGE ST,TORONTO, ON,M5T 1S2",43.6572643083333,-79.4028396333333,30,1,0.5,35,0.254318366758525,15.2591020055115
"98","RETAIL STORE (FOOD)","SUPERMART","TORONTO, ON","M6H 1N4","BLOOR ST W","1205 BLOOR ST W,TORONTO, ON,M6H 1N4",43.6588399,-79.4397629,30,1,0.5,33,0.749913486610067,44.994809196604
"99","RETAIL STORE (FOOD)","AXIS AUGUSTA CENTRAL PHARMACY","TORONTO, ON","M5T 1S6","COLLEGE ST","360 COLLEGE ST,TORONTO, ON,M5T 1S6",43.6572695,-79.404463,30,1,0.5,31,0.342813515292074,20.5688109175245
"100","RETAIL STORE (FOOD)","BROTHERS DISCOUNT","TORONTO, ON","M6J 1Y6","DUNDAS ST W","1478 DUNDAS ST W,TORONTO, ON,M6J 1Y6",43.6497868,-79.4313011,30,1,0.5,29,1.38789258735486,83.2735552412917
"101","RETAIL STORE (FOOD)","HERBS AND NUTRITION","TORONTO, ON","M6G 1K1","BLOOR ST W","572 BLOOR ST W,TORONTO, ON,M6G 1K1",43.6651019272727,-79.4119657909091,30,1,0.5,24,0.448716398794204,26.9229839276522
"102","RETAIL STORE (FOOD)","UNIVERSITY OF TORONTO BOOKSTORE","TORONTO, ON","M5T 3A1","COLLEGE ST","214 COLLEGE ST,TORONTO, ON,M5T 3A1",43.6588244,-79.3969597,30,1,0.5,26,0.354504488874227,21.2702693324536
"103","RETAIL STORE (FOOD)","SECOND CUP TORONTO WESTERN HOSPITAL","TORONTO, ON","M5T 2S8","BATHURST ST","399 BATHURST ST,TORONTO, ON,M5T 2S8",43.653567,-79.4054960448721,30,1,0.5,30,0.729722837875498,43.7833702725299
"104","RETAIL STORE (FOOD)","SHOPPERS DRUG MART","TORONTO, ON","M5S 1T8","BLOOR ST W","236 BLOOR ST W,TORONTO, ON,M5S 1T8",43.6683115,-79.3968395,30,1,0.5,35,0.514529314033776,30.8717588420266
"105","RETAIL STORE (FOOD)","BAKERY ON THE GO","TORONTO, ON","M5R 3G2","BATHURST ST","819 BATHURST ST,TORONTO, ON,M5R 3G2",43.666291,-79.41166,30,1,0.5,25,1.06377229928495,63.8263379570968
"106","RETAIL STORE (FOOD)","KARINE'S","TORONTO, ON","M5T 3K5","MCCAUL ST","109 MCCAUL ST,TORONTO, ON,M5T 3K5",43.6536772,-79.3908145,30,1,0.5,35,0.442992682568729,26.5795609541237
"107","RETAIL STORE (FOOD)","VEDA HEALTHY INDIAN TAKEOUT","TORONTO, ON","M5S 3G4","KING'S COLLEGE RD","10 KING'S COLLEGE RD,TORONTO, ON,M5S 3G4",43.6599999,-79.3952693,30,1,0.5,34,0.0234954254701734,1.4097255282104
"108","RETAIL STORE (FOOD)","ABBY'S CONVENIENCE + WIRELESS CLUB","TORONTO, ON","M6J 1E6","QUEEN ST W","675 QUEEN ST W,TORONTO, ON,M6J 1E6",43.6469265,-79.4047956,30,1,0.5,38,0.319658337626606,19.1795002575964
"109","RETAIL STORE (FOOD)","SUN WA BOOKSTORE","TORONTO, ON","M5T 3A5","SPADINA AVE","280 SPADINA AVE,TORONTO, ON,M5T 3A5",43.6526523,-79.3985239,30,1,0.5,29,3.98287395180619,238.972437108371
"110","RETAIL STORE (FOOD)","BENTO SUSHI","TORONTO, ON","M6G 1C5","COLLEGE ST","735 COLLEGE ST,TORONTO, ON,M6G 1C5",43.6542222,-79.4193675341605,30,1,0.5,23,0.167064904700965,10.0238942820579
"111","RETAIL STORE (FOOD)","COTE DE BOEUF","TORONTO, ON","M6J 2Z5","OSSINGTON AVE","130 OSSINGTON AVE,TORONTO, ON,M6J 2Z5",43.647174,-79.420054,30,1,0.5,20,0.258162755519152,15.4897653311491
"112","RETAIL STORE (FOOD)","CARLOS HOUSE OF SPICE","TORONTO, ON","M5T 2L6","AUGUSTA AVE","190 AUGUSTA AVE,TORONTO, ON,M5T 2L6",43.6541465,-79.4020178,30,1,0.5,31,1.69766890062931,101.860134037758
"113","RETAIL STORE (FOOD)","THAI BRIGHT","TORONTO, ON","M5T 3K5","MCCAUL ST","109 MCCAUL ST,TORONTO, ON,M5T 3K5",43.6536772,-79.3908145,30,1,0.5,28,0.644562499597669,38.6737499758601
"114","RETAIL STORE (FOOD)","KEVIN'S FOOD GROUP","TORONTO, ON","M6G 1L3","BLOOR ST W","675 BLOOR ST W,TORONTO, ON,M6G 1L3",43.66380225,-79.4162583510896,30,1,0.5,28,0.628256105352193,37.6953663211316
"115","RETAIL STORE (FOOD)","DOLLARAMA #719","TORONTO, ON","M6G 2N2","VAUGHAN RD","21 VAUGHAN RD,TORONTO, ON,M6G 2N2",43.6825154,-79.418309,30,1,0.5,25,1.58770633107963,95.2623798647776
"116","RETAIL STORE (FOOD)","COLLEGE FRUIT MARKET","TORONTO, ON","M6G 1C1","COLLEGE ST","682 COLLEGE ST,TORONTO, ON,M6G 1C1",43.6553556,-79.4173785,30,1,0.5,33,0.147674908395857,8.8604945037514
"117","RETAIL STORE (FOOD)","ST. MICHAEL'S DRUG MART","TORONTO, ON","M6G 1B2","COLLEGE ST","565 COLLEGE ST,TORONTO, ON,M6G 1B2",43.6553282,-79.4127287,30,1,0.5,31,0.414327947888523,24.8596768733114
"118","RETAIL STORE (FOOD)","BLOOR MEATS AND GROCERY","TORONTO, ON","M6G 1L2","BLOOR ST W","676 BLOOR ST W,TORONTO, ON,M6G 1L2",43.6640904,-79.4166176,30,1,0.5,40,3.77040122987187,226.224073792312
"119","RETAIL STORE (FOOD)","ORGANIC BOUTIQUE","TORONTO, ON","M6J 1H1","QUEEN ST W","970 QUEEN ST W,TORONTO, ON,M6J 1H1",43.6445709,-79.4176737,30,1,0.5,29,0.45754368416965,27.452621050179
"120","RETAIL STORE (FOOD)","KANTO BY TITA FLIPS","TORONTO, ON","M5T 2W6","DUNDAS ST W","707 DUNDAS ST W,TORONTO, ON,M5T 2W6",43.6519938,-79.4048143,30,1,0.5,32,0.726868135514034,43.6120881308421
"121","RETAIL STORE (FOOD)","DOLLARAMA","TORONTO, ON","M5S 1Y3","BLOOR ST W","512 BLOOR ST W,TORONTO, ON,M5S 1Y3",43.6653846,-79.4106267,30,1,0.5,33,2.07120871721747,124.272523033048
"122","RETAIL STORE (FOOD)","THE EXCHANGE","TORONTO, ON","M5S 3E6","ST GEORGE ST","105 ST GEORGE ST,TORONTO, ON,M5S 3E6",43.6652923,-79.3984012435221,30,1,0.5,19,2.92441197177692,175.464718306615
"123","RETAIL STORE (FOOD)","SERVICIOS INTERPACK","TORONTO, ON","M6G 1K5","BLOOR ST W","599 BLOOR ST W,TORONTO, ON,M6G 1K5",43.6646367,-79.4129836,30,1,0.5,30,0.381490289699286,22.8894173819572
"124","RETAIL STORE (FOOD)","NOSSO TALHO PARTNERSHIP","TORONTO, ON","M6H 1M3","BLOOR ST W","1046 BLOOR ST W,TORONTO, ON,M6H 1M3",43.6606608,-79.4322446666667,30,1,0.5,33,0.797963788690877,47.8778273214526
"125","RETAIL STORE (FOOD)","FRUITEAO","TORONTO, ON","M5T 3K5","MCCAUL ST","109 MCCAUL ST,TORONTO, ON,M5T 3K5",43.6536772,-79.3908145,30,1,0.5,39,0.592422243673354,35.5453346204013
"126","RETAIL STORE (FOOD)","SAN FRANCESCO FOODS","TORONTO, ON","M6J 2N8","CLINTON ST","10 CLINTON ST,TORONTO, ON,M6J 2N8",43.65400288,-79.41351866,30,1,0.5,25,0.105424533132464,6.32547198794782
"127","RETAIL STORE (FOOD)","GINOS PIZZA & WING MACHINE","TORONTO, ON","M5T 2S8","BATHURST ST","399 BATHURST ST,TORONTO, ON,M5T 2S8",43.653567,-79.4054960448721,30,1,0.5,33,2.46617860520694,147.970716312417
"128","RETAIL STORE (FOOD)","NOSSO TALHO PARTNERSHIP","TORONTO, ON","M6H 1M3","BLOOR ST W","1048 BLOOR ST W,TORONTO, ON,M6H 1M3",43.660647,-79.4323034777778,30,1,0.5,34,0.647788960020989,38.8673376012594
"129","RETAIL STORE (FOOD)","NOSSO TALHO PARTNERSHIP","TORONTO, ON","M6H 1M3","BLOOR ST W","1042 BLOOR ST W,TORONTO, ON,M6H 1M3",43.660708,-79.4321287,30,1,0.5,36,3.67908950687802,220.745370412681
"130","RETAIL STORE (FOOD)","7-ELEVEN","TORONTO, ON","M5S 3A5","BAY ST","1033 BAY ST,TORONTO, ON,M5S 3A5",43.6659781,-79.3875905,30,1,0.5,29,1.64208504476539,98.5251026859232
"131","RETAIL STORE (FOOD)","7-ELEVEN","TORONTO, ON","M6J 1X5","DUNDAS ST W","1260 DUNDAS ST W,TORONTO, ON,M6J 1X5",43.6495631,-79.4245424,30,1,0.5,37,0.555963748134673,33.3578248880804
"132","RETAIL STORE (FOOD)","HANG HING HONG FOODS","TORONTO, ON","M5T 1G7","DUNDAS ST W","430 DUNDAS ST W,TORONTO, ON,M5T 1G7",43.653586,-79.395415,30,1,0.5,26,1.00113263070108,60.0679578420646
"133","RETAIL STORE (FOOD)","PAVAO MEATS & DELI #3","TORONTO, ON","M6H 4A9","DUFFERIN ST","900 DUFFERIN ST,TORONTO, ON,M6H 4A9",43.65598005,-79.4357278941842,30,1,0.5,25,0.212896970566362,12.7738182339817
"134","RETAIL STORE (FOOD)","99 PHARMACY","TORONTO, ON","M5T 1G7","DUNDAS ST W","436 DUNDAS ST W,TORONTO, ON,M5T 1G7",43.65351,-79.3957876666667,30,1,0.5,35,0.0373868402867211,2.24321041720326
"135","RETAIL STORE (FOOD)","BBQ EXPRESS","TORONTO, ON","M5R 2A7","BAY ST","1240 BAY ST,TORONTO, ON,M5R 2A7",43.6703246,-79.3903555,30,1,0.5,34,1.8411987256862,110.471923541172
"136","RETAIL STORE (FOOD)","BANG BANG","TORONTO, ON","M6J 2Z2","OSSINGTON AVE","95 OSSINGTON AVE,TORONTO, ON,M6J 2Z2",43.6468535,-79.4197918,30,1,0.5,25,3.56226297260678,213.735778356407
"137","RETAIL STORE (FOOD)","DOLLARAMA #855","TORONTO, ON","M6J 1X5","DUNDAS ST W","1220 DUNDAS ST W,TORONTO, ON,M6J 1X5",43.6495195,-79.4232778,30,1,0.5,40,0.419316892977804,25.1590135786682
"138","RETAIL STORE (FOOD)","MARSHALLS #727","TORONTO, ON","M6H 4A9","DUFFERIN ST","900 DUFFERIN ST,TORONTO, ON,M6H 4A9",43.65598005,-79.4357278941842,30,1,0.5,34,1.84585831864717,110.75149911883
"139","RETAIL STORE (FOOD)","HARD HAT CAFE","TORONTO, ON","M5S 3G4","KING'S COLLEGE RD","10 KING'S COLLEGE RD,TORONTO, ON,M5S 3G4",43.6599999,-79.3952693,30,1,0.5,26,0.0762506967953644,4.57504180772186
"140","RETAIL STORE (FOOD)","ALMOND BUTTERFLY BAKERY","TORONTO, ON","M5S 1G6","HARBORD ST","100 HARBORD ST,TORONTO, ON,M5S 1G6",43.6629196,-79.4034116,30,1,0.5,40,0.186105189963509,11.1663113978105
"141","RETAIL STORE (FOOD)","BUNNER'S","TORONTO, ON","M5T 2M1","AUGUSTA AVE","244 AUGUSTA AVE,TORONTO, ON,M5T 2M1",43.6555183,-79.4026076,30,1,0.5,36,0.703497229622269,42.2098337773362
"142","RETAIL STORE (FOOD)","FRESH FRUIT MARKET","TORONTO, ON","M6G 1B9","COLLEGE ST","699 COLLEGE ST,TORONTO, ON,M6G 1B9",43.6550599,-79.4176425,30,1,0.5,17,0.336190364323556,20.1714218594134
"143","RETAIL STORE (FOOD)","THE TEN SPOT","TORONTO, ON","M5S 1Y2","BLOOR ST W","497 BLOOR ST W,TORONTO, ON,M5S 1Y2",43.6656908,-79.408015,30,1,0.5,29,0.649701445363462,38.9820867218077
"144","RETAIL STORE (FOOD)","CUMBRAES QUEEN STREET","TORONTO, ON","M6J 1E8","QUEEN ST W","714 QUEEN ST W,TORONTO, ON,M6J 1E8",43.6463364,-79.4089682,30,1,0.5,22,1.25628150064023,75.3768900384135
"145","RETAIL STORE (FOOD)","COLLEGE STREET CAFE","TORONTO, ON","M5T 1R8","COLLEGE ST","250 COLLEGE ST,TORONTO, ON,M5T 1R8",43.6590669,-79.3994125995288,30,1,0.5,35,1.97662752858343,118.597651715006
"146","RETAIL STORE (FOOD)","TRS","TORONTO, ON","M6H 1L5","BLOOR ST W","949 BLOOR ST W,TORONTO, ON,M6H 1L5",43.6613171,-79.4279504,30,1,0.5,28,0.464537501800805,27.8722501080483
"147","RETAIL STORE (FOOD)","BULK BARN","TORONTO, ON","M5S 1Y2","BLOOR ST W","503 BLOOR ST W,TORONTO, ON,M5S 1Y2",43.6655691,-79.4082588,30,1,0.5,21,0.579851293005049,34.791077580303
"148","RETAIL STORE (FOOD)","STARBUCKS COFFEE #22866","TORONTO, ON","M5S 2W7","BLOOR ST W","110 BLOOR ST W,TORONTO, ON,M5S 2W7",43.6696732,-79.392085,30,1,0.5,26,0.0204886769416439,1.22932061649864
"149","RETAIL STORE (FOOD)","SUPER QUEENS MARKET","TORONTO, ON","M6J 1E3","QUEEN ST W","596 QUEEN ST W,TORONTO, ON,M6J 1E3",43.6472351,-79.4044402,30,1,0.5,32,0.690496925264597,41.4298155158758
"150","RETAIL STORE (FOOD)","HILARY'S AGENCIES","TORONTO, ON","M6J 1V4","DUNDAS ST W","811 DUNDAS ST W,TORONTO, ON,M6J 1V4",43.6516399,-79.4086128,30,1,0.5,36,0.909624280366016,54.5774568219609
"151","RETAIL STORE (FOOD)","NEWPORT FISH & SEAFOOD","TORONTO, ON","M6H 2C1","GEARY AVE","181 GEARY AVE,TORONTO, ON,M6H 2C1",43.6697066,-79.4369422,30,1,0.5,30,0.341230418067425,20.4738250840455
"152","RETAIL STORE (FOOD)","TTB TRADING CO 2015","TORONTO, ON","M5T 1T1","COLLEGE ST","415 COLLEGE ST,TORONTO, ON,M5T 1T1",43.65648214,-79.40676496,30,1,0.5,30,0.0486582051962614,2.91949231177568
"153","RETAIL STORE (FOOD)","COCK-A-DOODLE-DOO BAKESHOP","TORONTO, ON","M6G 1M2","BLOOR ST W","830 BLOOR ST W,TORONTO, ON,M6G 1M2",43.6626033,-79.4235312,30,1,0.5,27,1.66955859205666,100.173515523399
"154","RETAIL STORE (FOOD)","THE ORGANIC PRESS","TORONTO, ON","M5T 2M1","AUGUSTA AVE","257 AUGUSTA AVE,TORONTO, ON,M5T 2M1",43.6554314,-79.4022212,30,1,0.5,48,1.29198590754987,77.5191544529922
"155","RETAIL STORE (FOOD)","SCHMALTZ APPETIZING","TORONTO, ON","M5R 1V9","DUPONT ST","414 DUPONT ST,TORONTO, ON,M5R 1V9",43.6738788,-79.4117405417354,30,1,0.5,28,0.319415944091517,19.164956645491
"156","RETAIL STORE (FOOD)","SUSHI SHOP","TORONTO, ON","M5S 1B2","GRENVILLE ST","76 GRENVILLE ST,TORONTO, ON,M5S 1B2",43.66173045,-79.3875392296137,30,1,0.5,35,0.920775053980661,55.2465032388396
"157","RETAIL STORE (FOOD)","GRANGE GREEN FARMS","TORONTO, ON","M5T 3K5","MCCAUL ST","109 MCCAUL ST,TORONTO, ON,M5T 3K5",43.6536772,-79.3908145,30,1,0.5,21,0.144579085055739,8.67474510334432
"158","RETAIL STORE (FOOD)","TIERRA AZTECA INC","TORONTO, ON","M6H 1M7","BLOOR ST W","1115 BLOOR ST W,TORONTO, ON,M6H 1M7",43.65975615,-79.4346428664051,30,1,0.5,27,1.09085776000739,65.4514656004436
"159","RETAIL STORE (FOOD)","FAMOUS CANADA","TORONTO, ON","M5T 3B3","SPADINA AVE","222 SPADINA AVE,TORONTO, ON,M5T 3B3",43.6509933,-79.3977969,30,1,0.5,24,1.31110513951154,78.6663083706923
"160","RETAIL STORE (FOOD)","JIMMY THE GREEK","TORONTO, ON","M6H 4B1","DUFFERIN ST","900 DUFFERIN ST,TORONTO, ON,M6H 4B1",43.65598005,-79.4357278941842,30,1,0.5,25,0.00908548753873655,0.545129252324193
"161","RETAIL STORE (FOOD)","COFFEE POCKET","TORONTO, ON","M6G 1L2","BLOOR ST W","688A BLOOR ST W,TORONTO, ON,M6G 1L2",43.6639888,-79.4170539,30,1,0.5,24,0.392856478812279,23.5713887287367
"162","RETAIL STORE (FOOD)","HUNG HING DRIED GOODS TRADING","TORONTO, ON","M5T 1G7","DUNDAS ST W","434 DUNDAS ST W,TORONTO, ON,M5T 1G7",43.653519,-79.3957443333333,30,1,0.5,25,0.224274200387299,13.4564520232379
"163","RETAIL STORE (FOOD)","P.G CLUCK'S","TORONTO, ON","M6G 1B4","COLLEGE ST","610 COLLEGE ST,TORONTO, ON,M6G 1B4",43.6552025,-79.4145539,30,1,0.5,34,0.501168872695416,30.070132361725
"164","RETAIL STORE (FOOD)","RAXLEN PHARMACY","TORONTO, ON","M5T 1S5","COLLEGE ST","343 COLLEGE ST,TORONTO, ON,M5T 1S5",43.6571582,-79.403281,30,1,0.5,44,3.26079067571049,195.647440542629
"165","RETAIL STORE (FOOD)","SHANGHAI 360","TORONTO, ON","M6H 4A9","DUFFERIN ST","900 DUFFERIN ST,TORONTO, ON,M6H 4A9",43.65598005,-79.4357278941842,30,1,0.5,33,0.307915221434087,18.4749132860452
"166","RETAIL STORE (FOOD)","GREENHOUSE JUICE CO","TORONTO, ON","M6J 1E9","QUEEN ST W","740 QUEEN ST W,TORONTO, ON,M6J 1E9",43.6461051,-79.4099475,30,1,0.5,28,0.219351698178798,13.1611018907279
"167","RETAIL STORE (FOOD)","THAI EXPRESS","TORONTO, ON","M6H 4A9","DUFFERIN ST","900 DUFFERIN ST,TORONTO, ON,M6H 4A9",43.65598005,-79.4357278941842,30,1,0.5,20,1.18967568590761,71.3805411544569
"168","RETAIL STORE (FOOD)","AMIGO XJ CONVENIENCE","TORONTO, ON","M6J 1X3","DUNDAS ST W","1151 DUNDAS ST W,TORONTO, ON,M6J 1X3",43.6492405,-79.4211276,30,1,0.5,20,1.98377531199696,119.026518719818
"169","RETAIL STORE (FOOD)","NASSAU VARIETY","TORONTO, ON","M5T 1M7","NASSAU ST","90 NASSAU ST,TORONTO, ON,M5T 1M7",43.6550488,-79.4038508,30,1,0.5,38,0.65906546311453,39.5439277868718
"170","RETAIL STORE (FOOD)","PIZZAIOLO","TORONTO, ON","M6J 1J5","QUEEN ST W","1172 QUEEN ST W,TORONTO, ON,M6J 1J5",43.64300875,-79.4255251325957,30,1,0.5,31,0.259487487375736,15.5692492425442
"171","RETAIL STORE (FOOD)","REXALL PHARMACIES","TORONTO, ON","M5R 3R9","AVENUE RD","87 AVENUE RD,TORONTO, ON,M5R 3R9",43.6719125,-79.395151,30,1,0.5,29,0.293218190759286,17.5930914455572
"172","RETAIL STORE (FOOD)","REXALL PHARMACIES","TORONTO, ON","M5S 1B2","GRENVILLE ST","76 GRENVILLE ST,TORONTO, ON,M5S 1B2",43.66173045,-79.3875392296137,30,1,0.5,29,0.349573070183396,20.9743842110038
"173","RETAIL STORE (FOOD)","ROYALTEA","TORONTO, ON","M5T 1H1","DUNDAS ST W","491A DUNDAS ST W,TORONTO, ON,M5T 1H1",43.6530776,-79.3974266,30,1,0.5,33,2.44815075571153,146.889045342692
"174","RETAIL STORE (FOOD)","RASTA PASTA JAMAICAN AND ITALIAN CUISINE","TORONTO, ON","M5T 2K2","KENSINGTON AVE","61 KENSINGTON AVE,TORONTO, ON,M5T 2K2",43.654193,-79.400345,30,1,0.5,33,0.402931542432442,24.1758925459465
"175","RETAIL STORE (FOOD)","RASTA PASTA JAMAICAN AND ITALIAN CUISINE","TORONTO, ON","M5T 2K2","KENSINGTON AVE","63 KENSINGTON AVE,TORONTO, ON,M5T 2K2",43.6542472222222,-79.4003658888889,30,1,0.5,29,3.14244760556107,188.546856333664
"176","RETAIL STORE (FOOD)","HAVEN","TORONTO, ON","M6H 3P1","BROCK AVE","615A BROCK AVE,TORONTO, ON,M6H 3P1",43.6594851,-79.4386193,30,1,0.5,48,0.382521890196805,22.9513134118083
"177","RETAIL STORE (FOOD)","GALLERIA EXPRESS","TORONTO, ON","M5S 1W7","BLOOR ST W","351 BLOOR ST W,TORONTO, ON,M5S 1W7",43.6669087,-79.4010556,30,1,0.5,33,2.8263726426509,169.582358559054
"178","RETAIL STORE (FOOD)","GOLDEN PATTY BAKERY","TORONTO, ON","M5T 1M1","BALDWIN ST","187 BALDWIN ST,TORONTO, ON,M5T 1M1",43.6546273333333,-79.4009166666667,30,1,0.5,31,2.65079261163685,159.047556698211
"179","RETAIL STORE (FOOD)","THE AGORA","TORONTO, ON","M6J 1G5","QUEEN ST W","921 QUEEN ST W,TORONTO, ON,M6J 1G5",43.6453143,-79.4126638,30,1,0.5,33,2.37981736088607,142.789041653164
"180","RETAIL STORE (FOOD)","PANCHO'S BAKERY INC","TORONTO, ON","M6H 4B5","DUFFERIN ST","1017 DUFFERIN ST,TORONTO, ON,M6H 4B5",43.6604293,-79.4353987,30,1,0.5,31,0.743590984060296,44.6154590436177
"181","RETAIL STORE (FOOD)","PANCHO'S BAKERY INC","TORONTO, ON","M5T 2L6","AUGUSTA AVE","214 AUGUSTA AVE,TORONTO, ON,M5T 2L6",43.6547204,-79.4022615444444,30,1,0.5,31,0.121310840667105,7.27865044002633
"182","RETAIL STORE (FOOD)","STUFF'D TORONTO","TORONTO, ON","M5T 2W6","DUNDAS ST W","707 DUNDAS ST W,TORONTO, ON,M5T 2W6",43.6519938,-79.4048143,30,1,0.5,38,0.58265747083351,34.9594482500106
"183","RETAIL STORE (FOOD)","MANCHU WOK","TORONTO, ON","M6H 4A9","DUFFERIN ST","900 DUFFERIN ST,TORONTO, ON,M6H 4A9",43.65598005,-79.4357278941842,30,1,0.5,31,0.844905833936454,50.6943500361873
"184","RETAIL STORE (FOOD)","BLOOR MEDICAL PHARMACY","TORONTO, ON","M6H 1M3","BLOOR ST W","1062 BLOOR ST W,TORONTO, ON,M6H 1M3",43.660529,-79.4327637,30,1,0.5,38,0.600245407316834,36.01472443901
"185","RETAIL STORE (FOOD)","DUNDAS GROCERY","TORONTO, ON","M6J 1V1","DUNDAS ST W","788 DUNDAS ST W,TORONTO, ON,M6J 1V1",43.6520364,-79.4080015,30,1,0.5,32,2.28863576973293,137.318146183976
"186","RETAIL STORE (FOOD)","THE SPICE TRADER","TORONTO, ON","M6J 1G5","QUEEN ST W","877 QUEEN ST W,TORONTO, ON,M6J 1G5",43.6455744818182,-79.4114084454545,30,1,0.5,33,0.7573134149489,45.438804896934
"187","RETAIL STORE (FOOD)","SUNSHINE WHOLESOME MARKET","TORONTO, ON","M6H 1A5","COLLEGE ST","942 COLLEGE ST,TORONTO, ON,M6H 1A5",43.6536779,-79.4266697,30,1,0.5,34,0.191244684823011,11.4746810893807
"188","RETAIL STORE (FOOD)","SOUTH CHINA HERBS MARKET","TORONTO, ON","M5T 1H1","DUNDAS ST W","491 DUNDAS ST W,TORONTO, ON,M5T 1H1",43.65293775,-79.3975806875,30,1,0.5,30,0.156147823669016,9.36886942014098
"189","RETAIL STORE (FOOD)","BLUE BANANA","TORONTO, ON","M5T 2L7","AUGUSTA AVE","250 AUGUSTA AVE,TORONTO, ON,M5T 2L7",43.6556494,-79.4026592,30,1,0.5,37,0.659630695357919,39.5778417214751
"190","RETAIL STORE (FOOD)","KIKKA SUSHI","TORONTO, ON","M5R 3R9","AVENUE RD","87 AVENUE RD,TORONTO, ON,M5R 3R9",43.6719125,-79.395151,30,1,0.5,34,1.71845397717299,103.10723863038
"191","RETAIL STORE (FOOD)","GLORIA FASHION & GIFT","TORONTO, ON","M6G 1K9","BLOOR ST W","654 BLOOR ST W,TORONTO, ON,M6G 1K9",43.6643131636364,-79.4155645909091,30,1,0.5,22,1.80370400465074,108.222240279044
"192","RETAIL STORE (FOOD)","TUNG TUNG DAN QUEN","TORONTO, ON","M5T 3A5","SPADINA AVE","280 SPADINA AVE,TORONTO, ON,M5T 3A5",43.6526523,-79.3985239,30,1,0.5,30,0.125231516900934,7.51389101405604
"193","RETAIL STORE (FOOD)","NANTANA THAI FOOD & DESSERTS","TORONTO, ON","M5T 2W6","DUNDAS ST W","707 DUNDAS ST W,TORONTO, ON,M5T 2W6",43.6519938,-79.4048143,30,1,0.5,30,0.382220870787509,22.9332522472505
"194","RETAIL STORE (FOOD)","D & D CONVENIENCE GROCERY","TORONTO, ON","M5R 1V7","DUPONT ST","272 DUPONT ST,TORONTO, ON,M5R 1V7",43.6750294,-79.406924,30,1,0.5,32,5.75477219657734,345.28633179464
"195","RETAIL STORE (FOOD)","NOM NOM NOM FOODS","TORONTO, ON","M5T 2W6","DUNDAS ST W","707 DUNDAS ST W,TORONTO, ON,M5T 2W6",43.6519938,-79.4048143,30,1,0.5,44,0.290835036430508,17.4501021858305
"196","RETAIL STORE (FOOD)","JACKED UP COFFEE","TORONTO, ON","M5R 1C2","YORKVILLE AVE","136-138 YORKVILLE AVE,TORONTO, ON,M5R 1C2",43.6704003,-79.3946697,30,1,0.5,25,0.401820824015886,24.1092494409531
"197","RETAIL STORE (FOOD)","PIZZA HUT","TORONTO, ON","M6H 1L4","BLOOR ST W","922 1/2 BLOOR ST W,TORONTO, ON,M6H 1L4",43.6534817,-79.3839347,30,1,0.5,33,0.193638506345451,11.6183103807271
"198","RETAIL STORE (FOOD)","GUSHI CHICKEN","TORONTO, ON","M5T 2W6","DUNDAS ST W","707 DUNDAS ST W,TORONTO, ON,M5T 2W6",43.6519938,-79.4048143,30,1,0.5,31,0.570878100581467,34.252686034888
"199","RETAIL STORE (FOOD)","A&W DUFFERIN MALL","TORONTO, ON","M6H 4A9","DUFFERIN ST","900 DUFFERIN ST,TORONTO, ON,M6H 4A9",43.65598005,-79.4357278941842,30,1,0.5,30,1.47811660136946,88.6869960821676
"200","RETAIL STORE (FOOD)","STARBANK","TORONTO, ON","M5T 3A9","COLLEGE ST","340 COLLEGE ST,TORONTO, ON,M5T 3A9",43.6574485,-79.4036825,30,1,0.5,32,1.37700242451848,82.6201454711087
"201","RETAIL STORE (FOOD)","HAWK AND CHICK FOOD","TORONTO, ON","M6J 1Y5","DUNDAS ST W","1426 DUNDAS ST W,TORONTO, ON,M6J 1Y5",43.6497174,-79.4295605,30,1,0.5,27,0.774082329082203,46.4449397449322
"202","RETAIL STORE (FOOD)","PICO DE GALLO","TORONTO, ON","M5T 2L6","AUGUSTA AVE","214 AUGUSTA AVE,TORONTO, ON,M5T 2L6",43.6547204,-79.4022615444444,30,1,0.5,40,1.29808375328304,77.8850251969822
"203","RETAIL STORE (FOOD)","LA PREP","TORONTO, ON","M5S 1B2","GRENVILLE ST","76 GRENVILLE ST,TORONTO, ON,M5S 1B2",43.66173045,-79.3875392296137,30,1,0.5,33,0.56921550584957,34.1529303509742
"204","RETAIL STORE (FOOD)","BOMBAY ROTI","TORONTO, ON","M5S 1Y5","BLOOR ST W","529 BLOOR ST W,TORONTO, ON,M5S 1Y5",43.66529955,-79.4094552967544,30,1,0.5,29,0.45823541097343,27.4941246584058
"205","RETAIL STORE (FOOD)","GREAT MOUNTAIN GINSENG CO LTD","TORONTO, ON","M5T 2E7","SPADINA AVE","324 SPADINA AVE,TORONTO, ON,M5T 2E7",43.6536168777778,-79.3986027222222,30,1,0.5,28,1.94556869930568,116.734121958341
"206","RETAIL STORE (FOOD)","WINNERS","TORONTO, ON","M5T 2S6","BATHURST ST","410 BATHURST ST,TORONTO, ON,M5T 2S6",43.6542022,-79.4069764,30,1,0.5,27,0.201454859226942,12.0872915536165
"207","RETAIL STORE (FOOD)","OUT OF THIS WORLD GRILL","TORONTO, ON","M6J 1H4","QUEEN ST W","1001 QUEEN ST W,TORONTO, ON,M6J 1H4",43.6439215,-79.4190102,30,1,0.5,31,0.746322589884412,44.7793553930647
"208","RETAIL STORE (FOOD)","MAJOR TREAT COFFEE","TORONTO, ON","M6J 1J5","QUEEN ST W","1158 QUEEN ST W,TORONTO, ON,M6J 1J5",43.6430476,-79.4251113,30,1,0.5,41,0.459261919371784,27.555715162307
"209","RETAIL STORE (FOOD)","STARFISH CARIBBEAN MARKET","TORONTO, ON","M5T 2S6","BATHURST ST","410 BATHURST ST,TORONTO, ON,M5T 2S6",43.6542022,-79.4069764,30,1,0.5,23,1.54087820268216,92.4526921609297
"210","RETAIL STORE (FOOD)","BENTO SUSHI","TORONTO, ON","M4V 1N5","ST CLAIR AVE W","111 ST CLAIR AVE W,TORONTO, ON,M4V 1N5",43.6865728,-79.3994296070968,30,1,0.5,22,1.62665407909992,97.5992447459951
"211","RETAIL STORE (FOOD)","KO'OX HANA","TORONTO, ON","M5T 2L6","AUGUSTA AVE","214 AUGUSTA AVE,TORONTO, ON,M5T 2L6",43.6547204,-79.4022615444444,30,1,0.5,40,2.41040098095748,144.624058857449
"212","RETAIL STORE (FOOD)","SHOPPERS DRUG MART 1281","TORONTO, ON","M5R 1V9","DUPONT ST","292 DUPONT ST,TORONTO, ON,M5R 1V9",43.6748464,-79.4077525,30,1,0.5,38,1.03779552965881,62.2677317795284
"213","RETAIL STORE (FOOD)","CHAVETA COFFEE","TORONTO, ON","M5R 3G7","BATHURST ST","994 BATHURST ST,TORONTO, ON,M5R 3G7",43.670413,-79.413425,30,1,0.5,29,0.135299724061042,8.11798344366252
"214","RETAIL STORE (FOOD)","241 PIZZA","TORONTO, ON","M6H 2H6","DAVENPORT RD","1383 DAVENPORT RD,TORONTO, ON,M6H 2H6",43.6728063,-79.4411586,30,1,0.5,32,2.86459296179895,171.875577707937
"215","RETAIL STORE (FOOD)","BLONDIES PIZZA","TORONTO, ON","M6J 2Z4","OSSINGTON AVE","88 OSSINGTON AVE,TORONTO, ON,M6J 2Z4",43.6460919,-79.4196668,30,1,0.5,34,1.13488847326279,68.0933083957674
"216","RETAIL STORE (FOOD)","CHEF HARWASH","TORONTO, ON","M5T 2W6","DUNDAS ST W","707 DUNDAS ST W,TORONTO, ON,M5T 2W6",43.6519938,-79.4048143,30,1,0.5,24,3.00973296148663,180.583977689198
"217","RETAIL STORE (FOOD)","HATTENDO CAFE","TORONTO, ON","M5T 1L1","BALDWIN ST","13 BALDWIN ST,TORONTO, ON,M5T 1L1",43.6560312,-79.3927533,30,1,0.5,42,0.407157353125513,24.4294411875308
"218","RETAIL STORE (FOOD)","SUMMERHILL MARKET","TORONTO, ON","M5R 3G7","BATHURST ST","1014 BATHURST ST,TORONTO, ON,M5R 3G7",43.6709605862069,-79.4136398275862,30,1,0.5,29,3.41982235742693,205.189341445616
"219","RETAIL STORE (FOOD)","IHALO KRUNCH","TORONTO, ON","M6J 1G1","QUEEN ST W","831 QUEEN ST W,TORONTO, ON,M6J 1G1",43.6459601,-79.4095532,30,1,0.5,27,0.342753704637289,20.5652222782373
"220","RETAIL STORE (FOOD)","DEER PARK PHARMACY","TORONTO, ON","M4V 2Y7","ST CLAIR AVE W","55 ST CLAIR AVE W,TORONTO, ON,M4V 2Y7",43.6871952,-79.3967831,30,1,0.5,28,0.123596352525055,7.41578115150332
"221","RETAIL STORE (FOOD)","FESTIVAL M&G DISTRIBUTING","TORONTO, ON","M6G 1B7","COLLEGE ST","649 COLLEGE ST,TORONTO, ON,M6G 1B7",43.6548511,-79.4159259,30,1,0.5,21,1.53170556194129,91.9023337164774
"222","RETAIL STORE (FOOD)","U OF T SECOND CUP","TORONTO, ON","M5S 3E6","ST GEORGE ST","105 ST GEORGE ST,TORONTO, ON,M5S 3E6",43.6652923,-79.3984012435221,30,1,0.5,33,0.0403677523136139,2.42206513881683
"223","RETAIL STORE (FOOD)","FRESHLY SQUEEZED","TORONTO, ON","M6H 4A9","DUFFERIN ST","900 DUFFERIN ST,TORONTO, ON,M6H 4A9",43.65598005,-79.4357278941842,30,1,0.5,34,1.27650336637617,76.5902019825704
"224","RETAIL STORE (FOOD)","JERK KING","TORONTO, ON","M6H 4A9","DUFFERIN ST","900 DUFFERIN ST,TORONTO, ON,M6H 4A9",43.65598005,-79.4357278941842,30,1,0.5,28,0.981572876004218,58.8943725602531
"225","RETAIL STORE (FOOD)","SWEET MAGIC","TORONTO, ON","M5T 3B3","SPADINA AVE","222 SPADINA AVE,TORONTO, ON,M5T 3B3",43.6509933,-79.3977969,30,1,0.5,26,0.07885999022708,4.7315994136248
"226","RETAIL STORE (FOOD)","TACOS GUS","TORONTO, ON","M6H 3J2","GLADSTONE AVE","616 GLADSTONE AVE,TORONTO, ON,M6H 3J2",43.6630944,-79.435539,30,1,0.5,32,0.864504253941517,51.870255236491
"227","RETAIL STORE (FOOD)","MABEL'S BAKERY","TORONTO, ON","M6J 1J5","QUEEN ST W","1156 QUEEN ST W,TORONTO, ON,M6J 1J5",43.6430689,-79.4250301,30,1,0.5,32,1.00816731150718,60.4900386904307
"228","RETAIL STORE (FOOD)","TATSU SUSHI","TORONTO, ON","M6J 1G1","QUEEN ST W","791 QUEEN ST W,TORONTO, ON,M6J 1G1",43.6461633,-79.4085125,30,1,0.5,25,1.33567836503954,80.1407019023724
"229","RETAIL STORE (FOOD)","O.B.SUZUME","TORONTO, ON","M5T 2W6","DUNDAS ST W","707 DUNDAS ST W,TORONTO, ON,M5T 2W6",43.6519938,-79.4048143,30,1,0.5,33,1.52438217125762,91.4629302754569
"230","RETAIL STORE (FOOD)","FOUND COFFEE","TORONTO, ON","M5T 1S3","COLLEGE ST","324 COLLEGE ST,TORONTO, ON,M5T 1S3",43.6576389,-79.4026199,30,1,0.5,31,0.355777792160135,21.3466675296081
"231","RETAIL STORE (FOOD)","TIM HORTONS","TORONTO, ON","M5R 2E6","DUPONT ST","150 DUPONT ST,TORONTO, ON,M5R 2E6",43.6757672,-79.4034806,30,1,0.5,20,0.0332395884107123,1.99437530464274
"232","RETAIL STORE (FOOD)","TIM HORTONS","TORONTO, ON","M5R 3H2","BATHURST ST","1110 BATHURST ST,TORONTO, ON,M5R 3H2",43.6732741,-79.4146252,30,1,0.5,26,0.324150580912828,19.4490348547697
"233","RETAIL STORE (FOOD)","FRESH 1 MARKET","TORONTO, ON","M6J 1E3","QUEEN ST W","614 QUEEN ST W,TORONTO, ON,M6J 1E3",43.6471206,-79.405077,30,1,0.5,33,0.91497673555733,54.8986041334398
"234","RETAIL STORE (FOOD)","THAI EXPRESS","TORONTO, ON","M5S 1B2","GRENVILLE ST","76 GRENVILLE ST,TORONTO, ON,M5S 1B2",43.66173045,-79.3875392296137,30,1,0.5,28,1.16096777744116,69.6580666464694
"235","RETAIL STORE (FOOD)","ANDREW & SHELLY'S NO FRILLS","TORONTO, ON","M6H 4A9","DUFFERIN ST","900 DUFFERIN ST,TORONTO, ON,M6H 4A9",43.65598005,-79.4357278941842,30,1,0.5,27,0.0690777090410484,4.1446625424629
"236","RETAIL STORE (FOOD)","INS MARKET","TORONTO, ON","M6H 4A9","DUFFERIN ST","900 DUFFERIN ST,TORONTO, ON,M6H 4A9",43.65598005,-79.4357278941842,30,1,0.5,20,0.610121634788811,36.6072980873287
"237","RETAIL STORE (FOOD)","THE KENSIGNTON VARIETY","TORONTO, ON","M5T 2K1","KENSINGTON AVE","56D KENSINGTON AVE,TORONTO, ON,M5T 2K1",43.6534465,-79.4002002,30,1,0.5,37,0.122351583559066,7.34109501354396
"238","RETAIL STORE (FOOD)","AZALE CONVENIENCE","TORONTO, ON","M6G 1B8","COLLEGE ST","670 COLLEGE ST,TORONTO, ON,M6G 1B8",43.6552694,-79.4167253,30,1,0.5,27,0.981052663135243,58.8631597881146
"239","RETAIL STORE (FOOD)","HONEY'S ICE CREAM","TORONTO, ON","M6J 1Y6","DUNDAS ST W","1448 DUNDAS ST W,TORONTO, ON,M6J 1Y6",43.6497589818182,-79.4304300772727,30,1,0.5,33,0.206125655211508,12.3675393126905
"240","RETAIL STORE (FOOD)","HAPPY BURGER","TORONTO, ON","M5S 2P1","LIPPINCOTT ST","76 LIPPINCOTT ST,TORONTO, ON,M5S 2P1",43.6571113421053,-79.4068031105263,30,1,0.5,40,0.894638448911619,53.6783069346972
"241","RETAIL STORE (FOOD)","GRANGE LOTTERY & NEWS","TORONTO, ON","M5T 3K5","MCCAUL ST","109 MCCAUL ST,TORONTO, ON,M5T 3K5",43.6536772,-79.3908145,30,1,0.5,33,0.574877451173961,34.4926470704377
"242","RETAIL STORE (FOOD)","FLAME & SMOKE","TORONTO, ON","M5T 2W6","DUNDAS ST W","707 DUNDAS ST W,TORONTO, ON,M5T 2W6",43.6519938,-79.4048143,30,1,0.5,41,0.880941870580328,52.8565122348197
"243","RETAIL STORE (FOOD)","TORTILLERIA EL TROMPO","TORONTO, ON","M5T 2M1","AUGUSTA AVE","279 AUGUSTA AVE,TORONTO, ON,M5T 2M1",43.6558404,-79.4024126,30,1,0.5,28,0.663167431484908,39.7900458890945
"244","RETAIL STORE (FOOD)","MARQ'S CHICAGO BEEF","TORONTO, ON","M5T 2W6","DUNDAS ST W","707 DUNDAS ST W,TORONTO, ON,M5T 2W6",43.6519938,-79.4048143,30,1,0.5,23,0.160833639558405,9.65001837350428
"245","RETAIL STORE (FOOD)","BIG BEAR PANCAKES","TORONTO, ON","M5T 3B3","SPADINA AVE","222 SPADINA AVE,TORONTO, ON,M5T 3B3",43.6509933,-79.3977969,30,1,0.5,39,1.12242239616336,67.3453437698014
"246","RETAIL STORE (FOOD)","FRESHCO","TORONTO, ON","M5T 2S6","BATHURST ST","410 BATHURST ST,TORONTO, ON,M5T 2S6",43.6542022,-79.4069764,30,1,0.5,23,0.240263531915843,14.4158119149506
"247","RETAIL STORE (FOOD)","PG CLUCKS QUEEN ST.","TORONTO, ON","M6J 1H9","QUEEN ST W","1112 QUEEN ST W,TORONTO, ON,M6J 1H9",43.6434254,-79.4231939,30,1,0.5,36,0.0673967910895561,4.04380746537337
"248","RETAIL STORE (FOOD)","LITTLE BANH MI SHOP","TORONTO, ON","M5T 2W6","DUNDAS ST W","707 DUNDAS ST W,TORONTO, ON,M5T 2W6",43.6519938,-79.4048143,30,1,0.5,31,0.43601106107235,26.160663664341
"249","RETAIL STORE (FOOD)","LA BOULANGERIE","TORONTO, ON","M6J 1X2","DUNDAS ST W","1134 DUNDAS ST W,TORONTO, ON,M6J 1X2",43.6495006,-79.4204202,30,1,0.5,44,0.254321266924417,15.259276015465
"250","RETAIL STORE (FOOD)","ISABELLA'S BOUTIQUE","TORONTO, ON","M6G 1K5","BLOOR ST W","607 BLOOR ST W,TORONTO, ON,M6G 1K5",43.6645814,-79.4132274,30,1,0.5,23,0.0783330144133181,4.69998086479909
"251","RETAIL STORE (FOOD)","GAUCHO PIE CO","TORONTO, ON","M6H 3A7","WESTMORELAND AVE N","346 WESTMORELAND AVE N,TORONTO, ON,M6H 3A7",43.6710337,-79.4348158,30,1,0.5,38,2.18743148023352,131.245888814011
"252","RETAIL STORE (FOOD)","PIZZA NOVA","TORONTO, ON","M6G 1C2","COLLEGE ST","703 COLLEGE ST,TORONTO, ON,M6G 1C2",43.6550122,-79.4180071,30,1,0.5,25,0.508012152276933,30.480729136616
"253","RETAIL STORE (FOOD)","THE LIBRARY SPECIALTY COFFEE","TORONTO, ON","M6J 1G5","QUEEN ST W","917 QUEEN ST W,TORONTO, ON,M6J 1G5",43.6453549,-79.4125613,30,1,0.5,20,0.535623039584607,32.1373823750764
"254","RETAIL STORE (FOOD)","TORONTO HAPPY GO GIFT CENTER","TORONTO, ON","M5T 2E4","SPADINA AVE","262 SPADINA AVE,TORONTO, ON,M5T 2E4",43.6522537,-79.3978792,30,1,0.5,32,0.385779452510178,23.1467671506107
"255","RETAIL STORE (FOOD)","PIZZAIOLO","TORONTO, ON","M5S 1X5","BLOOR ST W","416 BLOOR ST W,TORONTO, ON,M5S 1X5",43.665931,-79.40802864,30,1,0.5,35,0.102415712084621,6.14494272507727
"256","RETAIL STORE (FOOD)","SCOTTY BONS CARIBBEAN GRILL","TORONTO, ON","M5S 1X5","BLOOR ST W","402 BLOOR ST W,TORONTO, ON,M5S 1X5",43.6659809,-79.407746,30,1,0.5,24,0.739352773797594,44.3611664278557
"257","RETAIL STORE (FOOD)","BIG ORANGE","TORONTO, ON","M6H 4A9","DUFFERIN ST","900 DUFFERIN ST,TORONTO, ON,M6H 4A9",43.65598005,-79.4357278941842,30,1,0.5,26,0.251115931663662,15.0669558998197
"258","RETAIL STORE (FOOD)","KERNELS POPCORN LIMITED","TORONTO, ON","M6H 4A9","DUFFERIN ST","900 DUFFERIN ST,TORONTO, ON,M6H 4A9",43.65598005,-79.4357278941842,30,1,0.5,33,0.360799415112632,21.6479649067579
"259","RETAIL STORE (FOOD)","BRICK N CHEESE COMPANY","TORONTO, ON","M6G 1B8","COLLEGE ST","672-674 COLLEGE ST,TORONTO, ON,M6G 1B8",43.6549649,-79.4157321,30,1,0.5,21,0.796794219831836,47.8076531899102
"260","RETAIL STORE (FOOD)","BOHO GELATO INC","TORONTO, ON","M5T 3K7","BALDWIN ST","160 BALDWIN ST,TORONTO, ON,M5T 3K7",43.6550566,-79.3998561,30,1,0.5,30,0.615121762733907,36.9073057640344
"261","RETAIL STORE (FOOD)","GOOD BEHAVIOUR ICE CREAM","TORONTO, ON","M6H 3A7","WESTMORELAND AVE N","342 WESTMORELAND AVE N,TORONTO, ON,M6H 3A7",43.6707514,-79.4346517,30,1,0.5,27,0.100772220175713,6.0463332105428
"262","RETAIL STORE (FOOD)","TASTET BATHURST","TORONTO, ON","M5T 2S6","BATHURST ST","410 BATHURST ST,TORONTO, ON,M5T 2S6",43.6542022,-79.4069764,30,1,0.5,36,0.38026120653376,22.8156723920256
"263","RETAIL STORE (FOOD)","VILLAGE MARKET","TORONTO, ON","M6G 1K1","BLOOR ST W","580 BLOOR ST W,TORONTO, ON,M6G 1K1",43.6649564,-79.4128782,30,1,0.5,38,0.660863320343196,39.6517992205918
"264","RETAIL STORE (FOOD)","ETHIO-ERI CAFE INC","TORONTO, ON","M5T 2W6","DUNDAS ST W","707 DUNDAS ST W,TORONTO, ON,M5T 2W6",43.6519938,-79.4048143,30,1,0.5,32,0.828035679603827,49.6821407762296
"265","RETAIL STORE (FOOD)","VIDA MARKET","TORONTO, ON","M5T 1M1","BALDWIN ST","193 BALDWIN ST,TORONTO, ON,M5T 1M1",43.6545339,-79.4014113,30,1,0.5,28,0.948115962515485,56.8869577509291
"266","RETAIL STORE (FOOD)","ALTERNITY","TORONTO, ON","M5S 1W7","BLOOR ST W","333 BLOOR ST W,TORONTO, ON,M5S 1W7",43.6673698,-79.4005613,30,1,0.5,29,0.303110937046251,18.186656222775
"267","RETAIL STORE (FOOD)","ANNEX MART","TORONTO, ON","M5S 1Y5","BLOOR ST W","535 BLOOR ST W,TORONTO, ON,M5S 1Y5",43.6653143,-79.4096593,30,1,0.5,24,1.30968950125845,78.5813700755067
"268","RETAIL STORE (FOOD)","RC COFFEE","TORONTO, ON","M6G 1B1","COLLEGE ST","550 COLLEGE ST,TORONTO, ON,M6G 1B1",43.6557692,-79.4118901,30,1,0.5,25,1.79935694387337,107.961416632402
"269","RETAIL STORE (FOOD)","SULEE DOSIRAK","TORONTO, ON","M5T 2W6","DUNDAS ST W","707 DUNDAS ST W,TORONTO, ON,M5T 2W6",43.6519938,-79.4048143,30,1,0.5,33,0.508089890703559,30.4853934422135
"270","RETAIL STORE (FOOD)","COLLEGE LIFE CARE PHARMACY","TORONTO, ON","M6G 1A6","COLLEGE ST","528 COLLEGE ST,TORONTO, ON,M6G 1A6",43.6559765,-79.4109096,30,1,0.5,26,0.326958266552538,19.6174959931523
"271","RETAIL STORE (FOOD)","TINY MARKET CO.","TORONTO, ON","M5R 3G5","BATHURST ST","938 BATHURST ST,TORONTO, ON,M5R 3G5",43.6687847153846,-79.4128317538461,30,1,0.5,37,0.297997845336795,17.8798707202077
"272","RETAIL STORE (FOOD)","MEDICAL PHARMACY","TORONTO, ON","M5T 3A9","COLLEGE ST","340 COLLEGE ST,TORONTO, ON,M5T 3A9",43.6574485,-79.4036825,30,1,0.5,21,1.05940975222235,63.5645851333409
"273","RETAIL STORE (FOOD)","MR. PRETZELS","TORONTO, ON","M6H 4A9","DUFFERIN ST","900 DUFFERIN ST,TORONTO, ON,M6H 4A9",43.65598005,-79.4357278941842,30,1,0.5,42,0.0998629401437938,5.99177640862763
"274","RETAIL STORE (FOOD)","NAOKI SUSHI","TORONTO, ON","M6H 4A9","DUFFERIN ST","900 DUFFERIN ST,TORONTO, ON,M6H 4A9",43.65598005,-79.4357278941842,30,1,0.5,38,0.838971668913409,50.3383001348045
"275","RETAIL STORE (FOOD)","RC COFFEE","TORONTO, ON","M5T 3K7","BALDWIN ST","160 BALDWIN ST,TORONTO, ON,M5T 3K7",43.6550566,-79.3998561,30,1,0.5,30,0.524469624273479,31.4681774564087
"276","RETAIL STORE (FOOD)","SOL PIZZA","TORONTO, ON","M5S 3A5","BAY ST","1033 BAY ST,TORONTO, ON,M5S 3A5",43.6659781,-79.3875905,30,1,0.5,20,0.707601888063264,42.4561132837958
"277","RETAIL STORE (FOOD)","NOFA'S CAFE","TORONTO, ON","M6H 3Y9","LANSDOWNE AVE","699 LANSDOWNE AVE,TORONTO, ON,M6H 3Y9",43.6593023,-79.4428279,30,1,0.5,41,0.356785771436989,21.4071462862194
"278","RETAIL STORE (FOOD)","OROSHI FISH","TORONTO, ON","M6H 1A5","COLLEGE ST","962 COLLEGE ST,TORONTO, ON,M6H 1A5",43.6535402,-79.4273704,30,1,0.5,23,1.18485704336828,71.0914226020968
"279","RETAIL STORE (FOOD)","CINNABON","TORONTO, ON","M6H 4B1","DUFFERIN ST","900 DUFFERIN ST,TORONTO, ON,M6H 4B1",43.65598005,-79.4357278941842,30,1,0.5,32,0.810842769178462,48.6505661507077
"280","RETAIL STORE (FOOD)","MACEDO U-VIN DUFFERIN","TORONTO, ON","M6H 4C7","DUFFERIN ST","1381 DUFFERIN ST,TORONTO, ON,M6H 4C7",43.6702141,-79.4392772,30,1,0.5,29,0.245388985145837,14.7233391087502
"281","RETAIL STORE (FOOD)","CRUMBS PATTIES","TORONTO, ON","M5T 3K7","BALDWIN ST","160 BALDWIN ST,TORONTO, ON,M5T 3K7",43.6550566,-79.3998561,30,1,0.5,31,1.862737907698,111.76427446188
"282","RETAIL STORE (FOOD)","LA CATRINA TACOS","TORONTO, ON","M5T 2L6","AUGUSTA AVE","214 AUGUSTA AVE,TORONTO, ON,M5T 2L6",43.6547204,-79.4022615444444,30,1,0.5,35,0.808119454379094,48.4871672627456
"283","RETAIL STORE (FOOD)","HELEN + HILDEGARD","TORONTO, ON","M6J 1J5","QUEEN ST W","1174 QUEEN ST W,TORONTO, ON,M6J 1J5",43.6429559,-79.425564,30,1,0.5,36,0.586692451499403,35.2015470899642
"284","RETAIL STORE (FOOD)","NANCY'S CHEESE","TORONTO, ON","M5R 1V7","DUPONT ST","260 DUPONT ST,TORONTO, ON,M5R 1V7",43.6751164,-79.4065354769231,30,1,0.5,33,2.58075389812205,154.845233887323
"285","RETAIL STORE (FOOD)","URBAN FARE CATERING","TORONTO, ON","M5R 3H8","BATHURST ST","1415 BATHURST ST,TORONTO, ON,M5R 3H8",43.6813576,-79.41743,30,1,0.5,33,0.752497846291163,45.1498707774698
"286","RETAIL STORE (FOOD)","T&T SUPERMARKET","TORONTO, ON","M5T 1S2","COLLEGE ST","301 COLLEGE ST,TORONTO, ON,M5T 1S2",43.657462,-79.4015575,30,1,0.5,28,0.677153394557536,40.6292036734521
"287","RETAIL STORE (FOOD)","PAPA JOHNS PIZZA","TORONTO, ON","M6H 1C5","COLLEGE ST","1269 COLLEGE ST,TORONTO, ON,M6H 1C5",43.6509573,-79.4394357,30,1,0.5,31,0.671145928557962,40.2687557134777
"288","RETAIL STORE (FOOD)","EDO TWH","TORONTO, ON","M5T 2S8","BATHURST ST","399 BATHURST ST,TORONTO, ON,M5T 2S8",43.653567,-79.4054960448721,30,1,0.5,35,0.263311698567122,15.7987019140273
"289","RETAIL STORE (FOOD)","QUEEN BEAN COFFEE ROASTERS","TORONTO, ON","M5R 3J1","BATHURST ST","1378 BATHURST ST,TORONTO, ON,M5R 3J1",43.6804079578947,-79.4173947894737,30,1,0.5,30,0.842712883376227,50.5627730025736
"290","RETAIL STORE (FOOD)","LITTLE GHOSTS BOOKS","TORONTO, ON","M6J 1W3","DUNDAS ST W","930 DUNDAS ST W,TORONTO, ON,M6J 1W3",43.6509526666667,-79.4133318166667,30,1,0.5,21,4.13506319166577,248.103791499946
"291","RETAIL STORE (FOOD)","SWISS ART CHOCOLATIER ON YORKVILLE","TORONTO, ON","M5R 1B9","YORKVILLE AVE","70 YORKVILLE AVE,TORONTO, ON,M5R 1B9",43.6715217,-79.3908954668323,30,1,0.5,41,0.135943229775876,8.15659378655255
"292","RETAIL STORE (FOOD)","CHILACA TACOS","TORONTO, ON","M5T 2L6","AUGUSTA AVE","214 AUGUSTA AVE,TORONTO, ON,M5T 2L6",43.6547204,-79.4022615444444,30,1,0.5,35,1.0992389563051,65.9543373783059
"293","RETAIL STORE (FOOD)","SHOPPERS DRUG MART #813","TORONTO, ON","M6G 1C5","COLLEGE ST","725 COLLEGE ST,TORONTO, ON,M6G 1C5",43.65428475,-79.4189438279363,30,1,0.5,29,0.705768559086037,42.3461135451622
"294","RETAIL STORE (FOOD)","E & F NATURAL PRODUCTS","TORONTO, ON","M5T 3B3","SPADINA AVE","222 SPADINA AVE,TORONTO, ON,M5T 3B3",43.6509933,-79.3977969,30,1,0.5,37,0.617358176968992,37.0414906181395
"295","RETAIL STORE (FOOD)","84 NASSAU STREET","TORONTO, ON","M5T 1M5","NASSAU ST","84 NASSAU ST,TORONTO, ON,M5T 1M5",43.6551111,-79.4033649,30,1,0.5,29,1.20799211232637,72.479526739582
"296","RETAIL STORE (FOOD)","BOCADOS BAKESHOP","TORONTO, ON","M6J 1G5","QUEEN ST W","923B QUEEN ST W,TORONTO, ON,M6J 1G5",43.6453074,-79.4127484,30,1,0.5,28,1.52018563874329,91.2111383245972
"297","RETAIL STORE (FOOD)","SAIGON SANDWICHES","TORONTO, ON","M6H 3Y9","LANSDOWNE AVE","675 LANSDOWNE AVE,TORONTO, ON,M6H 3Y9",43.6586403,-79.4426185166667,30,1,0.5,36,1.75419866657796,105.251919994678
"298","RETAIL STORE (FOOD)","REAL FRUIT BUBBLE TEA","TORONTO, ON","M6G 1K9","BLOOR ST W","660 1/2 BLOOR ST W,TORONTO, ON,M6G 1K9",43.6534817,-79.3839347,30,1,0.5,31,1.78021191803845,106.812715082307
"299","RETAIL STORE (FOOD)","LUCKY'S EXOTIC BODEGA","TORONTO, ON","M6J 2Z8","OSSINGTON AVE","213 OSSINGTON AVE,TORONTO, ON,M6J 2Z8",43.64878425,-79.4202151762623,30,1,0.5,34,0.87427178542422,52.4563071254532
"300","RETAIL STORE (FOOD)","EOL NATURALS","TORONTO, ON","M5T 2K1","KENSINGTON AVE","48 KENSINGTON AVE,TORONTO, ON,M5T 2K1",43.6539645,-79.4005165,30,1,0.5,33,3.41217719001656,204.730631400993
"301","RETAIL STORE (FOOD)","BLOORCOURT PHARMACY","TORONTO, ON","M6H 1L4","BLOOR ST W","936 BLOOR ST W,TORONTO, ON,M6H 1L4",43.6616564,-79.4276896,30,1,0.5,36,0.193437359295785,11.6062415577471
"302","RETAIL STORE (FOOD)","EXTREME PITA","TORONTO, ON","M5S 1B2","GRENVILLE ST","76 GRENVILLE ST,TORONTO, ON,M5S 1B2",43.66173045,-79.3875392296137,30,1,0.5,22,1.18655909128011,71.1935454768069
"303","RETAIL STORE (FOOD)","ABRIE'S CONVENIENCE & GROCERY STORE","TORONTO, ON","M6H 1M2","BLOOR ST W","1024 BLOOR ST W,TORONTO, ON,M6H 1M2",43.66088302,-79.43129322,30,1,0.5,35,1.45195269948783,87.1171619692698
"304","RETAIL STORE (FOOD)","SHEFIELD EXPRESS#59","TORONTO, ON","M6H 4A9","DUFFERIN ST","900 DUFFERIN ST,TORONTO, ON,M6H 4A9",43.65598005,-79.4357278941842,30,1,0.5,29,0.801037734284723,48.0622640570834
"305","RETAIL STORE (FOOD)","THREE STARS FOOD AND GROCERY","TORONTO, ON","M6J 2L5","NIAGARA ST","241 NIAGARA ST,TORONTO, ON,M6J 2L5",43.643955,-79.4088223,30,1,0.5,28,0.150963271502405,9.05779629014432
"306","RETAIL STORE (FOOD)","MAC'S SUSHI","TORONTO, ON","M6H 4B1","DUFFERIN ST","900 DUFFERIN ST,TORONTO, ON,M6H 4B1",43.65598005,-79.4357278941842,30,1,0.5,25,1.00645477693052,60.3872866158314
"307","RETAIL STORE (FOOD)","SUSHI CAFE BON GUNG","TORONTO, ON","M5T 3K5","MCCAUL ST","109 MCCAUL ST,TORONTO, ON,M5T 3K5",43.6536772,-79.3908145,30,1,0.5,21,0.929060664917243,55.7436398950346
"308","RETAIL STORE (FOOD)","APRIL SWEETS DUFFERIN MALL","TORONTO, ON","M6H 4A9","DUFFERIN ST","900 DUFFERIN ST,TORONTO, ON,M6H 4A9",43.65598005,-79.4357278941842,30,1,0.5,28,0.893303303006005,53.5981981803603
"309","RETAIL STORE (FOOD)","BAD ATTITUDE BREAD","TORONTO, ON","M6J 1V3","DUNDAS ST W","816 DUNDAS ST W,TORONTO, ON,M6J 1V3",43.6518043,-79.4089994,30,1,0.5,30,2.14877552653379,128.926531592027
"310","RETAIL STORE (FOOD)","DISCO COMPANY","TORONTO, ON","M6J 1H8","QUEEN ST W","1086 1/2 QUEEN ST W,TORONTO, ON,M6J 1H8",43.6437114,-79.4221150379358,30,1,0.5,43,0.294770431856101,17.6862259113661
"311","RETAIL STORE (FOOD)","BRICOLAGE BAKERY","TORONTO, ON","M6H 1A6","COLLEGE ST","981 COLLEGE ST,TORONTO, ON,M6H 1A6",43.6531754666667,-79.4277331,30,1,0.5,30,0.304468827715463,18.2681296629278
"312","RETAIL STORE (FOOD)","KENSINGTON ART GALLERY","TORONTO, ON","M5T 1M1","BALDWIN ST","191 BALDWIN ST,TORONTO, ON,M5T 1M1",43.6545672,-79.4013204,30,1,0.5,24,1.64780576450342,98.868345870205
"313","RETAIL STORE (FOOD)","INS MARKET 5051","TORONTO, ON","M5S 1V8","BLOOR ST W","270 BLOOR ST W,TORONTO, ON,M5S 1V8",43.6675661,-79.4003773,30,1,0.5,31,1.05052880007298,63.0317280043788
"314","RETAIL STORE (FOOD)","DAK LAK","TORONTO, ON","M5T 1S2","COLLEGE ST","283 COLLEGE ST,TORONTO, ON,M5T 1S2",43.65763702,-79.40082774,30,1,0.5,25,0.158242575358599,9.49455452151597
"315","RETAIL STORE (FOOD)","CORNER CREPE CO","TORONTO, ON","M5T 1R6","COLLEGE ST","267 COLLEGE ST,TORONTO, ON,M5T 1R6",43.6576064,-79.3995305,30,1,0.5,28,0.0235121259465814,1.41072755679488
"316","RETAIL STORE (FOOD)","QUEEN SHAWARMA","TORONTO, ON","M6J 1H1","QUEEN ST W","998 QUEEN ST W,TORONTO, ON,M6J 1H1",43.6443689,-79.4185641,30,1,0.5,27,0.854428556558907,51.2657133935344
"317","RETAIL STORE (FOOD)","THE BOWL KOREAN FOOD","TORONTO, ON","M5T 3K5","MCCAUL ST","109 MCCAUL ST,TORONTO, ON,M5T 3K5",43.6536772,-79.3908145,30,1,0.5,28,0.705434853169036,42.3260911901422
"318","RETAIL STORE (FOOD)","BAO BOX","TORONTO, ON","M6J 1T9","DUNDAS ST W","755 DUNDAS ST W,TORONTO, ON,M6J 1T9",43.6520532,-79.407238,30,1,0.5,24,1.46166805914583,87.7000835487499
"319","RETAIL STORE (FOOD)","SWEETIE PIE","TORONTO, ON","M6J 1E5","QUEEN ST W","654 QUEEN ST W,TORONTO, ON,M6J 1E5",43.6467626,-79.4067618,30,1,0.5,29,0.64109614584595,38.465768750757
"320","RETAIL STORE (FOOD)","EUPHORIA FOOD","TORONTO, ON","M5R 1V7","DUPONT ST","258 DUPONT ST,TORONTO, ON,M5R 1V7",43.6751309,-79.4064707230769,30,1,0.5,25,0.899704017634404,53.9822410580642
"321","RETAIL STORE (FOOD)","BLOOR FRUIT MARKET","TORONTO, ON","M6G 1K9","BLOOR ST W","662 BLOOR ST W,TORONTO, ON,M6G 1K9",43.6642456,-79.4158703,30,1,0.5,33,0.337008472548803,20.2205083529281
"322","RETAIL STORE (FOOD)","CHEZ PAUL","TORONTO, ON","M6J 1G1","QUEEN ST W","833 QUEEN ST W,TORONTO, ON,M6J 1G1",43.645939,-79.4096603,30,1,0.5,30,2.60111039978977,156.066623987386
"323","RETAIL STORE (FOOD)","BLOORCOURT STATIONERY & POSTAL OUTLET","TORONTO, ON","M6H 1M2","BLOOR ST W","1016 BLOOR ST W,TORONTO, ON,M6H 1M2",43.6609443,-79.4309807,30,1,0.5,32,0.366797985043377,22.0078791026026
"324","RETAIL STORE (FOOD)","DESSERT FOX","TORONTO, ON","M6G 1K8","BLOOR ST W","635 BLOOR ST W,TORONTO, ON,M6G 1K8",43.6642872,-79.4145326,30,1,0.5,31,0.656674524303526,39.4004714582115
"325","RETAIL STORE (FOOD)","TASTE BENDER ORIGINALS","TORONTO, ON","M5T 1S3","COLLEGE ST","316 COLLEGE ST,TORONTO, ON,M5T 1S3",43.6576816,-79.4023805,30,1,0.5,32,1.09812725753763,65.8876354522578
"326","RETAIL STORE (FOOD)","SORRY IVE GOT PLANTS","TORONTO, ON","M6J 1X3","DUNDAS ST W","1171 DUNDAS ST W,TORONTO, ON,M6J 1X3",43.6492485,-79.421711,30,1,0.5,38,0.476918905507773,28.6151343304664
"327","RETAIL STORE (FOOD)","CULTURES","TORONTO, ON","M6H 4A9","DUFFERIN ST","900 DUFFERIN ST,TORONTO, ON,M6H 4A9",43.65598005,-79.4357278941842,30,1,0.5,27,0.210987921338528,12.6592752803117
"328","RETAIL STORE (FOOD)","TAKOYAKI6IX","TORONTO, ON","M5T 3K7","BALDWIN ST","160 BALDWIN ST,TORONTO, ON,M5T 3K7",43.6550566,-79.3998561,30,1,0.5,26,1.01504623233796,60.9027739402778
"329","RETAIL STORE (FOOD)","BBQ @ BLOOR","TORONTO, ON","M6H 1L1","BLOOR ST W","914 BLOOR ST W,TORONTO, ON,M6H 1L1",43.6619101,-79.4265584,30,1,0.5,36,2.20472944762263,132.283766857358
"330","RETAIL STORE (FOOD)","VILLA MADINA","TORONTO, ON","M6H 4A9","DUFFERIN ST","900 DUFFERIN ST,TORONTO, ON,M6H 4A9",43.65598005,-79.4357278941842,30,1,0.5,29,0.269287889853325,16.1572733911995
"331","RETAIL STORE (FOOD)","ANNEX SOCIAL ESPRESSO BAR","TORONTO, ON","M5S 2R4","BATHURST ST","718 BATHURST ST,TORONTO, ON,M5S 2R4",43.6631615117647,-79.4106338764706,30,1,0.5,34,0.16514140041545,9.90848402492702
"332","RETAIL STORE (FOOD)","CIRCLE K","TORONTO, ON","M5S 1T8","BLOOR ST W","202 BLOOR ST W,TORONTO, ON,M5S 1T8",43.668411,-79.395916,30,1,0.5,38,0.511809240560979,30.7085544336587
"333","RETAIL STORE (FOOD)","SON OF A BUTCHER","TORONTO, ON","M6H 2C1","GEARY AVE","195 GEARY AVE,TORONTO, ON,M6H 2C1",43.669547075,-79.4375322625,30,1,0.5,28,0.528462398331612,31.7077438998967
"334","RETAIL STORE (FOOD)","C-BLOCK TAIWANESE STREET BENTO","TORONTO, ON","M6G 1L2","BLOOR ST W","690 BLOOR ST W,TORONTO, ON,M6G 1L2",43.6639846,-79.4170875,30,1,0.5,35,0.939616171601129,56.3769702960677
"335","RETAIL STORE (FOOD)","YOHANA CONVENIENCE STORE","TORONTO, ON","M6H 1L1","BLOOR ST W","898 BLOOR ST W,TORONTO, ON,M6H 1L1",43.6620158,-79.4260816,30,1,0.5,24,0.206759382039309,12.4055629223585
"336","RETAIL STORE (FOOD)","GHAZALE RESTAURANT","TORONTO, ON","M5S 1Y3","BLOOR ST W","504 BLOOR ST W,TORONTO, ON,M5S 1Y3",43.665433,-79.4103583,30,1,0.5,26,1.2033067009923,72.1984020595379
"337","RETAIL STORE (FOOD)","FRIENDS BUTTER CHICKEN (INDIAN CUISINE)","TORONTO, ON","M6J 1E6","QUEEN ST W","657 QUEEN ST W,TORONTO, ON,M6J 1E6",43.6470207,-79.4042672,30,1,0.5,22,1.87120209439638,112.272125663783
"338","RETAIL STORE (FOOD)","TOPGUN BURGERS","TORONTO, ON","M5S 1X8","BLOOR ST W","490 BLOOR ST W,TORONTO, ON,M5S 1X8",43.6655557,-79.4097482,30,1,0.5,26,2.08132329131684,124.879397479011
"339","RETAIL STORE (FOOD)","READYGO STORE 1","TORONTO, ON","M6J 1J4","QUEEN ST W","1153 QUEEN ST W,TORONTO, ON,M6J 1J4",43.6427197,-79.4247485,30,1,0.5,32,0.874959883598997,52.4975930159398
"340","RETAIL STORE (FOOD)","DRAGON CITY CORNER SNACK","TORONTO, ON","M5T 3A5","SPADINA AVE","280 SPADINA AVE,TORONTO, ON,M5T 3A5",43.6526523,-79.3985239,30,1,0.5,29,1.467446884918,88.0468130950798
"341","RETAIL STORE (FOOD)","KEZY FOOD","TORONTO, ON","M5T 3K5","MCCAUL ST","109 MCCAUL ST,TORONTO, ON,M5T 3K5",43.6536772,-79.3908145,30,1,0.5,41,0.317148252168567,19.028895130114
"342","RETAIL STORE (FOOD)","THE BURGER'S PRIEST","TORONTO, ON","M5S 1X5","BLOOR ST W","406 BLOOR ST W,TORONTO, ON,M5S 1X5",43.6659518,-79.4078352,30,1,0.5,27,0.897202606270921,53.8321563762553
"343","RETAIL STORE (FOOD)","HEALTHY PLANET - COLLEGE & BATHURST","TORONTO, ON","M6G 1A9","COLLEGE ST","555 COLLEGE ST,TORONTO, ON,M6G 1A9",43.6553954090909,-79.4122218636364,30,1,0.5,28,0.995141787412477,59.7085072447486
"344","RETAIL STORE (FOOD)","SLEEPY PETE'S","TORONTO, ON","M5T 2K2","KENSINGTON AVE","69 KENSINGTON AVE,TORONTO, ON,M5T 2K2",43.6545405,-79.4007856,30,1,0.5,36,0.286057088524103,17.1634253114462
"345","RETAIL STORE (FOOD)","THE BURGER'S PRIEST","TORONTO, ON","M6J 1H9","QUEEN ST W","1120 QUEEN ST W,TORONTO, ON,M6J 1H9",43.6433941,-79.4234048,30,1,0.5,26,0.857624574522388,51.4574744713433
"346","RETAIL STORE (FOOD)","SNOWDON GUARDIAN PHARMACY","TORONTO, ON","M5S 1V8","BLOOR ST W","264 BLOOR ST W,TORONTO, ON,M5S 1V8",43.6675455,-79.400101125,30,1,0.5,34,0.186817723792046,11.2090634275228
"347","RETAIL STORE (FOOD)","POPEYES LOUSIANA KITCHEN","TORONTO, ON","M5T 3K5","MCCAUL ST","109 MCCAUL ST,TORONTO, ON,M5T 3K5",43.6536772,-79.3908145,30,1,0.5,36,1.94969631536844,116.981778922106
"348","RETAIL STORE (FOOD)","JERK BOX","TORONTO, ON","M5T 2L6","AUGUSTA AVE","198 AUGUSTA AVE,TORONTO, ON,M5T 2L6",43.6543364,-79.4021223888889,30,1,0.5,24,2.1851107868037,131.106647208222
"349","RETAIL STORE (FOOD)","THE GOODS","TORONTO, ON","M6J 1J5","QUEEN ST W","1170 QUEEN ST W,TORONTO, ON,M6J 1J5",43.64301305,-79.4254776731124,30,1,0.5,29,0.258481386583298,15.5088831949979
"350","RETAIL STORE (FOOD)","DEATH IN VENICE GELATO","TORONTO, ON","M6J 1Y5","DUNDAS ST W","1418 DUNDAS ST W,TORONTO, ON,M6J 1Y5",43.6497102,-79.4293056,30,1,0.5,26,0.179753528907895,10.7852117344737
"351","RETAIL STORE (FOOD)","4LIFE NATURAL FOODS","TORONTO, ON","M5T 2L6","AUGUSTA AVE","210 AUGUSTA AVE,TORONTO, ON,M5T 2L6",43.6546244,-79.4022267555556,30,1,0.5,30,4.84463821698852,290.678293019311
"352","RETAIL STORE (FOOD)","SUBTRACTION KITCHEN","TORONTO, ON","M5T 3B3","SPADINA AVE","222 SPADINA AVE,TORONTO, ON,M5T 3B3",43.6509933,-79.3977969,30,1,0.5,28,0.274756294675171,16.4853776805103
"353","RETAIL STORE (FOOD)","ESPRESSO 21","TORONTO, ON","M6J 1E4","QUEEN ST W","636 QUEEN ST W,TORONTO, ON,M6J 1E4",43.6469144,-79.4059825,30,1,0.5,26,2.17693393849534,130.61603630972
"354","RETAIL STORE (FOOD)","MERRY HOME","TORONTO, ON","M5T 2E4","SPADINA AVE","260 SPADINA AVE,TORONTO, ON,M5T 2E4",43.65191555,-79.3982432951146,30,1,0.5,30,0.853900497737241,51.2340298642345
"355","RETAIL STORE (FOOD)","NEW YORK FRIES","TORONTO, ON","M6H 4A9","DUFFERIN ST","900 DUFFERIN ST,TORONTO, ON,M6H 4A9",43.65598005,-79.4357278941842,30,1,0.5,32,0.31948567539023,19.1691405234138
"356","RETAIL STORE (FOOD)","SHOPPERS DRUG MART","TORONTO, ON","M5S 1X1","BLOOR ST W","360A BLOOR ST W,TORONTO, ON,M5S 1X1",43.6665844,-79.4051229,30,1,0.5,29,0.393900516908616,23.6340310145169
"357","RETAIL STORE (FOOD)","AGIRI MART","TORONTO, ON","M6H 3Y9","LANSDOWNE AVE","685 LANSDOWNE AVE,TORONTO, ON,M6H 3Y9",43.6588698,-79.4427063083333,30,1,0.5,31,0.260842720977962,15.6505632586777
"358","RETAIL STORE (FOOD)","FRUITOMANN BUBBLE TEAS","TORONTO, ON","M6J 1T8","DUNDAS ST W","756 DUNDAS ST W,TORONTO, ON,M6J 1T8",43.6522931,-79.406732,30,1,0.5,27,1.05575770321758,63.3454621930547
"359","RETAIL STORE (FOOD)","LITTLE PEBBLES","TORONTO, ON","M5T 3K7","BALDWIN ST","160 BALDWIN ST,TORONTO, ON,M5T 3K7",43.6550566,-79.3998561,30,1,0.5,23,0.42806995427236,25.6841972563416
"360","RETAIL STORE (FOOD)","KRUNCHY TACO","TORONTO, ON","M5T 2L6","AUGUSTA AVE","214 AUGUSTA AVE,TORONTO, ON,M5T 2L6",43.6547204,-79.4022615444444,30,1,0.5,27,0.723405549618778,43.4043329771267
"361","RETAIL STORE (FOOD)","OJJJ'S VARIETY","TORONTO, ON","M6G 2V8","MANNING AVE","533 MANNING AVE,TORONTO, ON,M6G 2V8",43.6603751,-79.4144674,30,1,0.5,30,1.41545356242898,84.9272137457385
"362","RETAIL STORE (FOOD)","ABEGAZ M. E. RESTAURANT","TORONTO, ON","M6G 1B7","COLLEGE ST","661 COLLEGE ST,TORONTO, ON,M6G 1B7",43.6549274,-79.4163348,30,1,0.5,21,0.121540062715343,7.29240376292055
"363","RETAIL STORE (FOOD)","COFFEE EXCHANGE","TORONTO, ON","M5T 3K5","MCCAUL ST","109 MCCAUL ST,TORONTO, ON,M5T 3K5",43.6536772,-79.3908145,30,1,0.5,34,0.345115279313177,20.7069167587906
"364","RETAIL STORE (FOOD)","BEAR STEAK SANDWICHES","TORONTO, ON","M6G 1B1","COLLEGE ST","550A COLLEGE ST,TORONTO, ON,M6G 1B1",43.6559506,-79.4102302,30,1,0.5,24,0.499466657131489,29.9679994278893
"365","RETAIL STORE (FOOD)","THE SWEET CRUMBLE","TORONTO, ON","M5T 3K5","MCCAUL ST","109 MCCAUL ST,TORONTO, ON,M5T 3K5",43.6536772,-79.3908145,30,1,0.5,30,2.66331700036738,159.799020022043
"366","RETAIL STORE (FOOD)","ROSALU SNACKBAR","TORONTO, ON","M6G 3B7","CHRISTIE ST","228 CHRISTIE ST,TORONTO, ON,M6G 3B7",43.6697992818182,-79.4210245363636,30,1,0.5,27,0.184575882274657,11.0745529364794
"367","RETAIL STORE (FOOD)","EMERGE PHARMACY","TORONTO, ON","M5T 2E7","SPADINA AVE","302 SPADINA AVE,TORONTO, ON,M5T 2E7",43.6533451,-79.3986434,30,1,0.5,30,0.332112384106043,19.9267430463626
"368","RETAIL STORE (FOOD)","BOURBON ST. GRILL","TORONTO, ON","M6H 4A9","DUFFERIN ST","900 DUFFERIN ST,TORONTO, ON,M6H 4A9",43.65598005,-79.4357278941842,30,1,0.5,34,2.02383676721695,121.430206033017
"369","RETAIL STORE (FOOD)","GREAT KONG TRADING","TORONTO, ON","M5T 2G4","SPADINA AVE","356 SPADINA AVE,TORONTO, ON,M5T 2G4",43.6545575,-79.39900025,30,1,0.5,30,0.0264679361134768,1.58807616680861
"370","RETAIL STORE (FOOD)","YOMAN VARIETY AND COFFEE STORE","TORONTO, ON","M6H 2A3","DUPONT ST","1167 DUPONT ST,TORONTO, ON,M6H 2A3",43.6683498,-79.4387319,30,1,0.5,38,0.277580621652305,16.6548372991383
"371","RETAIL STORE (FOOD)","RONCESVALLES FRUIT MARKET","TORONTO, ON","M6J 1E4","QUEEN ST W","628 QUEEN ST W,TORONTO, ON,M6J 1E4",43.6469649,-79.405717,30,1,0.5,25,0.488503508735448,29.3102105241269
"372","RETAIL STORE (FOOD)","SMART CONVENIENCE","TORONTO, ON","M6H 1A5","COLLEGE ST","958 COLLEGE ST,TORONTO, ON,M6H 1A5",43.6535688,-79.427174,30,1,0.5,39,1.48333167002018,88.9999002012108
"373","RETAIL STORE (FOOD)","WINE RACK","TORONTO, ON","M6J 1H6","QUEEN ST W","1018 QUEEN ST W,TORONTO, ON,M6J 1H6",43.6441743,-79.4195069,30,1,0.5,24,0.306968238670379,18.4180943202227
"374","RETAIL STORE (FOOD)","WINE RACK","TORONTO, ON","M6J 1G1","QUEEN ST W","779 QUEEN ST W,TORONTO, ON,M6J 1G1",43.6462438,-79.4081531,30,1,0.5,24,2.86322393672542,171.793436203525
"375","RETAIL STORE (FOOD)","WINE RACK","TORONTO, ON","M6G 1C3","COLLEGE ST","714 COLLEGE ST,TORONTO, ON,M6G 1C3",43.655354,-79.4186592,30,1,0.5,35,1.56690520971062,94.0143125826373
"376","RETAIL STORE (FOOD)","CUERVO Y MARQUIS BAKERY CAFE","TORONTO, ON","M6J 2Z5","OSSINGTON AVE","132 OSSINGTON AVE,TORONTO, ON,M6J 2Z5",43.6471992,-79.4200648,30,1,0.5,26,0.612790850408318,36.7674510244991
"377","RETAIL STORE (FOOD)","WINE RACK","TORONTO, ON","M6G 1K1","BLOOR ST W","570 BLOOR ST W,TORONTO, ON,M6G 1K1",43.6651192,-79.4117841,30,1,0.5,27,2.2640421653951,135.842529923706
"378","RETAIL STORE (FOOD)","WINE RACK","TORONTO, ON","M5S 1W5","BLOOR ST W","320 BLOOR ST W,TORONTO, ON,M5S 1W5",43.6669335,-79.4032031,30,1,0.5,35,1.82328613652828,109.397168191697
"379","RETAIL STORE (FOOD)","SUBWAY","TORONTO, ON","M6J 1H8","QUEEN ST W","1082 QUEEN ST W,TORONTO, ON,M6J 1H8",43.6437425,-79.421926479582,30,1,0.5,22,1.58043849646094,94.8263097876563
"380","RETAIL STORE (FOOD)","BEVVY'S","TORONTO, ON","M5T 2G5","SPADINA AVE","398 SPADINA AVE,TORONTO, ON,M5T 2G5",43.655685,-79.399441,30,1,0.5,29,1.39038482672515,83.423089603509
"381","RETAIL STORE (FOOD)","SHOWCASE","TORONTO, ON","M6H 4A9","DUFFERIN ST","900 DUFFERIN ST,TORONTO, ON,M6H 4A9",43.65598005,-79.4357278941842,30,1,0.5,26,1.17577740266444,70.5466441598661
"382","RETAIL STORE (FOOD)","INS MARKET #5603","TORONTO, ON","M5R 2H6","AVENUE RD","142 AVENUE RD,TORONTO, ON,M5R 2H6",43.674589,-79.396665,30,1,0.5,35,1.27151963017405,76.2911778104432
"383","RETAIL STORE (FOOD)","OTHERSHIP","TORONTO, ON","M5S 2W7","BLOOR ST W","110 BLOOR ST W,TORONTO, ON,M5S 2W7",43.6696732,-79.392085,30,1,0.5,36,0.810035321819496,48.6021193091698
"384","RETAIL STORE (FOOD)","TOP TUMP","TORONTO, ON","M6H 1L5","BLOOR ST W","927 BLOOR ST W,TORONTO, ON,M6H 1L5",43.6614784,-79.4272786,30,1,0.5,19,0.0446080286848858,2.67648172109315
"385","RETAIL STORE (FOOD)","POPEYES LOUISIANA KITCHEN","TORONTO, ON","M6H 4A9","DUFFERIN ST","900 DUFFERIN ST,TORONTO, ON,M6H 4A9",43.65598005,-79.4357278941842,30,1,0.5,28,0.0699945357628167,4.199672145769
"386","RETAIL STORE (FOOD)","PAPA JOHN'S","TORONTO, ON","M6G 1B7","COLLEGE ST","653 COLLEGE ST,TORONTO, ON,M6G 1B7",43.6548991636364,-79.4161572727273,30,1,0.5,22,0.707512363749457,42.4507418249674
"387","RETAIL STORE (FOOD)","DONGUE CUISINE SANTE","TORONTO, ON","M5S 1C4","WELLESLEY ST W","74 WELLESLEY ST W,TORONTO, ON,M5S 1C4",43.66435085,-79.3888143689397,30,1,0.5,27,0.337032502748552,20.2219501649131
"388","RETAIL STORE (FOOD)","BAKERY POMPETTE","TORONTO, ON","M6G 1B7","COLLEGE ST","655 COLLEGE ST,TORONTO, ON,M6G 1B7",43.6549062363636,-79.4162103272727,30,1,0.5,27,0.481892940588295,28.9135764352977
"389","RETAIL STORE (FOOD)","FRUITY MIX","TORONTO, ON","M5T 1H1","DUNDAS ST W","497 DUNDAS ST W,TORONTO, ON,M5T 1H1",43.6529175,-79.397654375,30,1,0.5,29,1.33032740182699,79.8196441096194
"390","RETAIL STORE (FOOD)","PIRAGUA","TORONTO, ON","M6J 1G5","QUEEN ST W","893 QUEEN ST W,TORONTO, ON,M6J 1G5",43.6455228,-79.4117251,30,1,0.5,32,0.779897218528104,46.7938331116862
"391","RETAIL STORE (FOOD)","TURTLE ISLAND CO. 6","TORONTO, ON","M5T 2L4","AUGUSTA AVE","151 AUGUSTA AVE,TORONTO, ON,M5T 2L4",43.6526728,-79.4011101,30,1,0.5,25,0.101818254217505,6.10909525305033
"392","RETAIL STORE (FOOD)","QQ+ CONVENIENCE","TORONTO, ON","M6H 2H6","DAVENPORT RD","1395 DAVENPORT RD,TORONTO, ON,M6H 2H6",43.67276306,-79.44134364,30,1,0.5,35,0.374283515848219,22.4570109508932
"393","RETAIL STORE (FOOD)","SHOPPERS DRUG MART","TORONTO, ON","M6G 4C1","COLLEGE ST","463 COLLEGE ST,TORONTO, ON,M6G 4C1",43.6561267,-79.4085109,30,1,0.5,25,0.884920771191728,53.0952462715037
"394","RETAIL STORE (FOOD)","PLUS 84 CAFE","TORONTO, ON","M6H 1A5","COLLEGE ST","954 COLLEGE ST,TORONTO, ON,M6H 1A5",43.65361168,-79.42705873,30,1,0.5,32,0.0689381901199409,4.13629140719645
"395","RETAIL STORE (FOOD)","VILLAGE JUICERY","TORONTO, ON","M6G 1A6","COLLEGE ST","540 COLLEGE ST,TORONTO, ON,M6G 1A6",43.6560884,-79.4113814,30,1,0.5,28,0.427402833476663,25.6441700085998
"396","RETAIL STORE (FOOD)","ALL SPICE JERK","TORONTO, ON","M5T 3K5","MCCAUL ST","109 MCCAUL ST,TORONTO, ON,M5T 3K5",43.6536772,-79.3908145,30,1,0.5,37,1.33060001670839,79.8360010025032
"397","RETAIL STORE (FOOD)","AMINO ASIAN CUISINE","TORONTO, ON","M6J 1T9","DUNDAS ST W","755 DUNDAS ST W,TORONTO, ON,M6J 1T9",43.6520532,-79.407238,30,1,0.5,18,0.44538832642138,26.7232995852828
"398","RETAIL STORE (FOOD)","TAQUERIA VEGANA","TORONTO, ON","M6J 1J5","QUEEN ST W","1170 QUEEN ST W,TORONTO, ON,M6J 1J5",43.64301305,-79.4254776731124,30,1,0.5,34,0.136046353727579,8.16278122365475
"399","RETAIL STORE (FOOD)","GOOD MAN CHINESE HERBS & FOODS","TORONTO, ON","M5T 3B3","SPADINA AVE","222 SPADINA AVE,TORONTO, ON,M5T 3B3",43.6509933,-79.3977969,30,1,0.5,35,0.453011337667704,27.1806802600622
"400","RETAIL STORE (FOOD)","COLLEGE ST BAGEL CO","TORONTO, ON","M6G 1B9","COLLEGE ST","697 COLLEGE ST,TORONTO, ON,M6G 1B9",43.655055,-79.4175587,30,1,0.5,26,0.129076559146603,7.7445935487962
"401","RETAIL STORE (FOOD)","RV CONVENIENCE STORE","TORONTO, ON","M6H 2H6","DAVENPORT RD","1463 DAVENPORT RD,TORONTO, ON,M6H 2H6",43.672277,-79.4435299,30,1,0.5,35,0.226695493808007,13.6017296284804
"402","RETAIL STORE (FOOD)","THE BURRITO SHACK","TORONTO, ON","M5T 3K5","MCCAUL ST","109 MCCAUL ST,TORONTO, ON,M5T 3K5",43.6536772,-79.3908145,30,1,0.5,29,0.583819364197552,35.0291618518531
"403","RETAIL STORE (FOOD)","WOOFDAWG HOTDOG","TORONTO, ON","M5T 1M1","BALDWIN ST","185 BALDWIN ST,TORONTO, ON,M5T 1M1",43.654653,-79.400785,30,1,0.5,27,1.28162912554563,76.897747532738
"404","RETAIL STORE (FOOD)","EHERB NATURAL HEALTHY FOOD","TORONTO, ON","M6H 1A6","COLLEGE ST","983 COLLEGE ST,TORONTO, ON,M6H 1A6",43.6531622,-79.427795025,30,1,0.5,31,0.120472030813221,7.22832184879328
